,id,fecha_hora,nombre_del,entidad,cargo,fecha_ho_1,incertidum,latitud,longitud,incertid_1,tipo_movim,origen,municipio,corregimie,vereda_bar,sector,direccion,muertes,heridos,desapareci,otras_afec,fuente,observacio,validado,DEM_mean,slope_mean,aspect_mean,nhd_mean,geo,cober,pre_anual,fecha,mes,pre_mensual
0,1000,2024/08/06 22:05:31.000,Oscar Sanchez,SIATA - AMVA,Analista,2022/10/20 02:00:00.000,Baja,6.24915326299998,-75.625464498,Media,Deslizamiento,Antrópico,Medellín,Comuna 13 San Javier,Las Independencias,,Carrera 113 # 36 C - 42,0.0,0.0,,,DAGRD,,1,1659.767578125,36.9327138264974,274.84246826171875,0.20207091172536215,8.0,7.0,1916.7314,2022-10-20 02:00:00,10,239.29034
1,1497,2024/08/06 22:05:31.000,Oscar Sanchez,SIATA - AMVA,Analista,2024/07/11 15:00:00.000,Baja,6.223635689615262,-75.631941413431,Media,Deslizamiento,Antrópico,Medellín,Corregimiento 70 Altavista,Altavista Sector Central,,Calle 18 # 109 - 3 Interior 206,0.0,0.0,,,DAGRD,,1,1711.1448317307693,24.754925067608173,164.28282752403845,0.056987643241882324,12.0,7.0,1916.7314,2024-07-11 15:00:00,7,136.01384
2,833,2024/08/06 22:05:31.000,Oscar Sanchez,SIATA - AMVA,Analista,2022/07/01 05:30:00.000,Baja,6.2339808,-75.5356764,Media,Deslizamiento,Antrópico,Medellín,Comuna 8 Villa Hermosa,Las Estancias,,Carrera 6 # 52 - 23 Interior 151,0.0,0.0,,,DAGRD,,1,1653.9900841346155,9.083973224346455,152.36748798076923,0.04395183233114389,13.0,7.0,1969.9814,2022-07-01 05:30:00,7,138.8304
3,203,2024/08/06 22:05:31.000,Oscar Sanchez,SIATA - AMVA,Analista,2021/01/01 00:00:00.000,Media,6.278856478241316,-75.60772605856022,Media,Deslizamiento,Antrópico,Medellín,Comuna 7 Robledo,Fuente Clara,,Calle 63 # 96 A - 65 Interior 145,0.0,0.0,,,DAGRD,,1,1659.4982244318182,24.6323935768821,155.6624200994318,0.6919837431474165,12.0,7.0,1864.2473,2021-01-01 00:00:00,1,63.983105
4,835,2024/08/06 22:05:31.000,Oscar Sanchez,SIATA - AMVA,Analista,2022/07/05 05:00:00.000,Baja,6.27510101600001,-75.607243,Media,Deslizamiento,Antrópico,Medellín,Comuna 13 San Javier,Blanquizal,,Carrera 94 # 57 C - 65 Interior 118,0.0,0.0,,,DAGRD,,1,1611.880580357143,28.327848161969865,296.82261439732144,0.220713700566973,2.0,7.0,1864.2473,2022-07-05 05:00:00,7,130.3031
5,1478,2024/08/06 22:05:31.000,Oscar Sanchez,SIATA - AMVA,Analista,2024/07/01 12:50:00.000,Baja,6.26543338883258,-75.61442050660635,Media,Otro,Antrópico,Medellín,Comuna 13 San Javier,Juan XXIII La Quiebra,,Calle 48 DD # 99 D - 20 Interior 106,0.0,0.0,,,DAGRD,,1,1606.907001201923,18.790580162635216,219.70594200721155,0.09430334201225868,9.0,7.0,1864.2473,2024-07-01 12:50:00,7,130.3031
6,1456,2024/08/06 22:05:31.000,Oscar Sanchez,SIATA - AMVA,Analista,2024/06/27 07:00:00.000,Baja,6.207613948423542,-75.61102127710888,Media,Otro,Antrópico,Medellín,Corregimiento 70 Altavista,San José del Manzanillo,,Calle 5 Sur # 85 - 40,0.0,0.0,,,DAGRD,,1,1732.7491861979167,20.94786834716797,116.6986083984375,0.8667635122934977,8.0,8.0,1916.7314,2024-06-27 07:00:00,6,176.7423
7,1453,2024/08/06 22:05:31.000,Oscar Sanchez,SIATA - AMVA,Analista,2024/06/28 07:00:00.000,Baja,6.26660555,-75.62980022,Media,Deslizamiento,Antrópico,Medellín,Corregimiento 60 San Cristóbal,La Loma,,Carrera 125 # 50 C - 48,0.0,0.0,,,DAGRD,,1,1725.4622395833333,17.25426991780599,259.77569580078125,0.149360458056132,8.0,7.0,1864.2473,2024-06-28 07:00:00,6,159.97847
8,1008,2024/08/06 22:05:31.000,Oscar Sanchez,SIATA - AMVA,Analista,2022/10/22 09:30:00.000,Baja,6.277028624287424,-75.54492697608465,Media,Deslizamiento,Antrópico,Medellín,Comuna 3 Manrique,Las Granjas,,Carrera 32 # 84 C - 114,0.0,0.0,,,DAGRD,,1,1775.1318359375,38.65322004045759,253.77357700892858,0.3411863531385149,4.0,7.0,1850.9341,2022-10-22 09:30:00,10,219.28531
9,1446,2024/08/06 22:05:31.000,Oscar Sanchez,SIATA - AMVA,Analista,2024/06/19 18:00:00.000,Baja,6.270814125066564,-75.63108629392512,Media,Deslizamiento,Antrópico,Medellín,Corregimiento 60 San Cristóbal,La Loma,,Carrera 125 A # 53 A - 38,0.0,0.0,,,DAGRD,,1,1828.175030048077,17.930432833158054,187.09861403245193,0.6365598531869742,12.0,8.0,1864.2473,2024-06-19 18:00:00,6,159.97847
10,1444,2024/08/06 22:05:31.000,Oscar Sanchez,SIATA - AMVA,Analista,2024/06/16 23:00:00.000,Baja,6.2857564,-75.5866162,Media,Deslizamiento,Antrópico,Medellín,Comuna 7 Robledo,El Diamante,,Diagonal 85 # 79 - 173,0.0,0.0,,,DAGRD,,1,1651.291766826923,8.208936251126802,127.49941781850961,0.5295525330763596,12.0,7.0,1999.781,2024-06-16 23:00:00,6,146.82257
11,457,2024/08/06 22:05:31.000,Oscar Sanchez,SIATA - AMVA,Analista,2021/11/30 17:00:00.000,Baja,6.29810101599998,-75.582628997,Media,Deslizamiento,Antrópico,Medellín,Comuna 6 Doce de Octubre,Picacho,,Calle 98 # 83 - 27,0.0,0.0,,,DAGRD,,1,1744.0804332386363,16.72627674449574,114.59983132102273,0.3600503314625133,9.0,7.0,1999.781,2021-11-30 17:00:00,11,214.80737
12,842,2024/08/06 22:05:31.000,Oscar Sanchez,SIATA - AMVA,Analista,2022/04/04 05:00:00.000,Baja,6.25179326099999,-75.542298088,Media,Deslizamiento,Antrópico,Medellín,Comuna 8 Villa Hermosa,Los Mangos,,Carrera 18 A # 59 C - 27,0.0,0.0,,,DAGRD,,1,1826.8448893229167,9.408762613932291,240.7421671549479,0.9907499154408773,13.0,4.0,1850.9341,2022-04-04 05:00:00,4,208.7147
13,1443,2024/08/06 22:05:31.000,Oscar Sanchez,SIATA - AMVA,Analista,2024/06/16 23:00:00.000,Baja,6.2163386948959,-75.60359524307123,Media,Deslizamiento,Antrópico,Medellín,Comuna 16 Belén,La Loma de Los Bernal,,Calle 4 # 79 B - 93,0.0,0.0,,,DAGRD,,1,1530.4480794270833,28.74408467610677,20.770037333170574,0.48996424674987793,8.0,8.0,1916.7314,2024-06-16 23:00:00,6,176.7423
14,1419,2024/08/06 22:05:31.000,Oscar Sanchez,SIATA - AMVA,Analista,2024/06/01 14:00:00.000,Baja,6.29950067496048,-75.58908656191167,Media,Deslizamiento,Antrópico,Medellín,Corregimiento 60 San Cristóbal,El Picacho,,Carrera 92 # 97 - 88,0.0,0.0,,,DAGRD,,1,1928.4449869791667,17.725077311197918,173.423095703125,0.38240830103556317,9.0,5.0,1999.781,2024-06-01 14:00:00,6,146.82257
15,1409,2024/08/06 22:05:31.000,Oscar Sanchez,SIATA - AMVA,Analista,2024/05/24 17:00:00.000,Baja,6.2968266,-75.553067,Media,Deslizamiento,Antrópico,Medellín,Comuna 1 Popular,Moscú No.2,,Calle 99 # 39 A - 28,0.0,0.0,,,DAGRD,,1,1547.6214488636363,9.880864923650568,291.11612215909093,0.6610664020885121,12.0,7.0,1999.781,2024-05-24 17:00:00,5,260.7479
16,1405,2024/08/06 22:05:31.000,Oscar Sanchez,SIATA - AMVA,Analista,2023/05/29 20:00:00.000,Baja,6.2490532,-75.6368111,Media,Deslizamiento,Antrópico,Medellín,Comuna 13 San Javier,Nuevos Conquistadores,,Carrera 117 B # 36 C - 42,0.0,0.0,,,DAGRD,,1,1860.830357142857,32.36696297781808,339.7118443080357,0.6664571762084961,8.0,8.0,1916.7314,2023-05-29 20:00:00,5,233.13675
17,213,2024/08/06 22:05:31.000,Oscar Sanchez,SIATA - AMVA,Analista,2021/05/17 15:58:00.000,Baja,6.253717757,-75.629275996,Media,Deslizamiento,Antrópico,Medellín,Comuna 13 San Javier,El Salado,,Calle 39 DA # 119 - 42 Interior 101,0.0,0.0,,,DAGRD,,1,1649.926983173077,26.275118314302883,6.4376701941856975,0.27369055381188023,8.0,7.0,1864.2473,2021-05-17 15:58:00,5,247.5928
18,575,2024/08/06 22:05:31.000,Oscar Sanchez,SIATA - AMVA,Analista,2022/04/03 21:30:00.000,Baja,6.35340852600001,-75.702042332,Media,Deslizamiento,Antrópico,Medellín,Corregimiento 50 San Sebastián de Palmitas,Potrera Miserenga,,Carrera 212 # 170 - 255 Dirección de referencia,0.0,0.0,,,DAGRD,,1,1711.4918619791667,14.712064107259115,249.31620279947916,0.007742031166950862,2.0,8.0,1653.7441,2022-04-03 21:30:00,4,177.79059
19,1397,2024/08/06 22:05:31.000,Oscar Sanchez,SIATA - AMVA,Analista,2024/05/21 18:00:00.000,Baja,6.26817717,-75.60244862,Media,Otro,Antrópico,Medellín,Comuna 12 La América,Calasanz Parte Alta,,Calle 51 # 84 - 181,0.0,0.0,,,DAGRD,,1,1550.0884486607142,9.677725655691964,222.55414690290178,0.17992327894483293,2.0,1.0,1864.2473,2024-05-21 18:00:00,5,247.5928
20,1396,2024/08/06 22:05:31.000,Oscar Sanchez,SIATA - AMVA,Analista,2022/06/28 08:00:00.000,Baja,6.2161401,-75.56697,Media,Deslizamiento,Antrópico,Medellín,Comuna 14 El Poblado,Castropol,,Calle 26 # 39 - 70 URBANIZACION VELEROS DEL ESTE,0.0,0.0,,,DAGRD,,1,1565.8336838942307,3.4986495971679688,286.98935171274036,0.15414006893451399,13.0,1.0,1968.7611,2022-06-28 08:00:00,6,167.01154
21,365,2024/08/06 22:05:31.000,Oscar Sanchez,SIATA - AMVA,Analista,2021/10/15 15:00:00.000,Baja,6.29457289700002,-75.595869404,Media,Deslizamiento,Antrópico,Medellín,Comuna 7 Robledo,Aures No.2,,Calle 79 BB # 96 - 131 Interior 103,0.0,2.0,,,DAGRD,,1,1905.7835286458333,16.144317626953125,172.8680623372396,0.8221151034037272,12.0,8.0,1999.781,2021-10-15 15:00:00,10,257.31787
22,581,2024/08/06 22:05:31.000,Oscar Sanchez,SIATA - AMVA,Analista,2022/04/05 03:45:00.000,Baja,6.272073299,-75.612308502,Media,Deslizamiento,Antrópico,Medellín,Comuna 7 Robledo,Olaya Herrera,,Calle 56 # 102 - 208 Interior 170,0.0,0.0,,,DAGRD,,1,1745.6881510416667,25.85833994547526,151.48412068684897,0.7754898071289062,9.0,7.0,1864.2473,2022-04-05 03:45:00,4,201.95624
23,1024,2024/08/06 22:05:31.000,Oscar Sanchez,SIATA - AMVA,Analista,2022/10/23 22:00:00.000,Baja,6.177168241,-75.650175778,Media,Deslizamiento,Antrópico,Medellín,Corregimiento 80 San Antonio de Prado,San Antonio de Prado,,Calle 50 C Sur # 70 - 06,0.0,0.0,,,DAGRD,,1,1815.9807942708333,3.4582316080729165,52.159210205078125,0.36860283215840656,14.0,7.0,2023.1007,2022-10-23 22:00:00,10,242.23367
24,1381,2024/08/06 22:05:31.000,Oscar Sanchez,SIATA - AMVA,Analista,2024/05/15 14:40:00.000,Baja,6.219007258975214,-75.63524520078055,Media,Otro,Antrópico,Medellín,Corregimiento 70 Altavista,Buga Patio Bonito,,Carrera 111 D # 12 - 90 Dirección de referencia,0.0,0.0,,,DAGRD,,1,1818.0908954326924,21.529512845552883,287.4685809795673,0.37676150982196516,8.0,7.0,1916.7314,2024-05-15 14:40:00,5,233.13675
25,1373,2024/08/06 22:05:31.000,Oscar Sanchez,SIATA - AMVA,Analista,2024/05/10 15:00:00.000,Baja,6.27157324819773,-75.53960370117666,Media,Deslizamiento,Antrópico,Medellín,Comuna 3 Manrique,La Cruz,,Carrera 25 # 79 C - 66 Interior 118,0.0,0.0,,,DAGRD,,1,1991.9641927083333,32.06571960449219,284.6607259114583,0.2673325538635254,4.0,8.0,1850.9341,2024-05-10 15:00:00,5,223.04109
26,584,2024/08/06 22:05:31.000,Oscar Sanchez,SIATA - AMVA,Analista,2022/04/06 03:50:00.000,Baja,6.20222571400001,-75.595519,Media,Deslizamiento,Antrópico,Medellín,Comuna 15 Guayabal,El Rodeo,,Calle 9 Sur # 79 C - 139 Urbanización Dominica,0.0,0.0,,,DAGRD,,1,1562.9549278846155,8.569854736328125,34.35257192758414,0.495511348430927,8.0,7.0,1968.7611,2022-04-06 03:50:00,4,208.94077
27,857,2024/08/06 22:05:31.000,Oscar Sanchez,SIATA - AMVA,Analista,2022/06/02 08:00:00.000,Baja,6.21337787599998,-75.55969237,Media,Deslizamiento,Antrópico,Medellín,Comuna 14 El Poblado,Las Lomas No.2,,Carrera 30 # 10 C - 280,0.0,0.0,,,DAGRD,,1,1638.4800180288462,25.000774676983173,300.0830829326923,0.3071130789243258,13.0,4.0,1968.7611,2022-06-02 08:00:00,6,167.01154
28,858,2024/08/06 22:05:31.000,Oscar Sanchez,SIATA - AMVA,Analista,2022/07/26 09:50:00.000,Baja,6.25338330699998,-75.625494619,Media,Deslizamiento,Antrópico,Medellín,Comuna 13 San Javier,Veinte de Julio,,Calle 39 C # 114 - 1 Dirección de referencia,0.0,0.0,,,DAGRD,,1,1584.0693359375,22.221227010091145,64.02088419596355,0.3501494725545247,8.0,7.0,1864.2473,2022-07-26 09:50:00,7,130.3031
29,1369,2024/08/06 22:05:31.000,Oscar Sanchez,SIATA - AMVA,Analista,2024/05/10 09:30:00.000,Baja,6.30128043,-75.58539697,Media,Deslizamiento,Antrópico,Medellín,Comuna 6 Doce de Octubre,Picachito,,Calle 98 CC # 86 - 91,0.0,0.0,,,DAGRD,,1,1858.8121995192307,23.865065354567307,143.07215294471155,0.59436218555157,9.0,2.0,1745.7523,2024-05-10 09:30:00,5,209.26208
30,1031,2024/08/06 22:05:31.000,Oscar Sanchez,SIATA - AMVA,Analista,2022/10/24 20:00:00.000,Baja,6.23937667299998,-75.537574392,Media,Otro,Antrópico,Medellín,Comuna 8 Villa Hermosa,San Antonio,,Carrera 14 B # 56 AA - 54 Interior 141 Dirección de referencia,0.0,0.0,,,DAGRD,,1,1743.4998604910713,33.570421491350444,223.41969517299108,0.18546911648341588,4.0,7.0,1969.9814,2022-10-24 20:00:00,10,247.66861
31,1368,2024/08/06 22:05:31.000,Oscar Sanchez,SIATA - AMVA,Analista,2024/05/14 16:00:00.000,Baja,6.29472696,-75.58045582,Media,Deslizamiento,Antrópico,Medellín,Comuna 6 Doce de Octubre,San Martín de Porres,,Calle 96 B # 76 - 55,0.0,0.0,,,DAGRD,,1,1663.096454326923,12.239410400390625,95.26369065504808,0.4592973268949069,12.0,7.0,1999.781,2024-05-14 16:00:00,5,260.7479
32,1366,2024/08/06 22:05:31.000,Oscar Sanchez,SIATA - AMVA,Analista,2024/05/07 20:00:00.000,Baja,6.18188246127512,-75.6508853564801,Media,Deslizamiento,Antrópico,Medellín,Corregimiento 80 San Antonio de Prado,San Antonio de Prado,,Calle 40 A Sur # 70 - 16,0.0,0.0,,,DAGRD,,1,1831.1762319711538,19.779160719651443,181.66748046875,0.8836010419405423,14.0,5.0,2044.8639,2024-05-07 20:00:00,5,274.5251
33,1365,2024/08/06 22:05:31.000,Oscar Sanchez,SIATA - AMVA,Analista,2024/04/30 15:00:00.000,Baja,6.2641974,-75.5545989,Media,Deslizamiento,Antrópico,Medellín,Comuna 3 Manrique,Manrique Central No.2,,Carrera 45 # 66 - 10,0.0,0.0,,,DAGRD,,1,1570.176983173077,9.892924382136417,284.53975736177887,0.5753423250638522,13.0,7.0,1999.781,2024-04-30 15:00:00,4,210.7456
34,1361,2024/08/06 22:05:31.000,Oscar Sanchez,SIATA - AMVA,Analista,2024/05/04 06:30:00.000,Baja,6.24289971,-75.54203293,Media,Otro,Antrópico,Medellín,Comuna 8 Villa Hermosa,El Pinal,,Carrera 21 # 56 BD - 5 Interior 111,0.0,0.0,,,DAGRD,,1,1725.7542067307693,18.80730731670673,245.23291015625,0.7906513214111328,4.0,7.0,1969.9814,2024-05-04 06:30:00,5,239.54109
35,1036,2024/08/06 22:05:31.000,Oscar Sanchez,SIATA - AMVA,Analista,2022/10/24 12:00:00.000,Baja,6.284064450659108,-75.54198016527869,Media,Deslizamiento,Antrópico,Medellín,Comuna 3 Manrique,San José La Cima No.1,,Carrera 28 # 92 D - 72 Interior 101,0.0,0.0,,,DAGRD,,1,1907.881924715909,19.988636363636363,255.57710404829547,0.7113207036798651,4.0,4.0,1850.9341,2022-10-24 12:00:00,10,219.28531
36,374,2024/08/06 22:05:31.000,Oscar Sanchez,SIATA - AMVA,Analista,2021/10/23 20:00:00.000,Baja,6.27200092099997,-75.541130769,Media,Deslizamiento,Antrópico,Medellín,Comuna 3 Manrique,La Cruz,,Calle 79 C # 26 - 160 Interior 163,0.0,0.0,,,DAGRD,,1,1930.7221235795455,22.030290083451703,265.32421875,0.24981888857754794,4.0,7.0,1850.9341,2021-10-23 20:00:00,10,219.28531
37,1038,2024/08/06 22:05:31.000,Oscar Sanchez,SIATA - AMVA,Analista,2022/10/24 10:00:00.000,Baja,6.296451494,-75.541619224,Media,Flujo,Antrópico,Medellín,Comuna 1 Popular,Santo Domingo Savio No.1,,Carrera 30 C # 107 A - 35,0.0,0.0,,,DAGRD,,1,1831.9907924107142,36.61613246372768,63.99615914481027,0.3493202649630033,4.0,2.0,1850.9341,2022-10-24 10:00:00,10,219.28531
38,865,2024/08/06 22:05:31.000,Oscar Sanchez,SIATA - AMVA,Analista,2022/07/28 13:00:00.000,Baja,6.2601598,-75.6066234,Media,Otro,Antrópico,Medellín,Comuna 13 San Javier,Los Alcázares,,Calle 49 BB # 93 - 76 Apartamento 301,0.0,0.0,,,DAGRD,,1,1511.5301983173076,4.603905017559345,141.56605881911057,0.26493160541240984,12.0,7.0,1864.2473,2022-07-28 13:00:00,7,130.3031
39,1360,2024/08/06 22:05:31.000,Oscar Sanchez,SIATA - AMVA,Analista,2024/05/04 02:00:00.000,Baja,6.26238696,-75.55449073,Media,Otro,Antrópico,Medellín,Comuna 3 Manrique,Manrique Central No.2,,Carrera 44 # 66 - 210,0.0,0.0,,,DAGRD,,1,1581.896763392857,14.220563616071429,272.56539481026783,0.7208477428981236,13.0,7.0,1999.781,2024-05-04 02:00:00,5,260.7479
40,718,2024/08/06 22:05:31.000,Oscar Sanchez,SIATA - AMVA,Analista,2022/06/02 08:00:00.000,Baja,6.21469853100001,-75.559412289,Media,Deslizamiento,Antrópico,Medellín,Comuna 14 El Poblado,Las Lomas No.2,,Calle 16 # 28 - 195,0.0,0.0,,,DAGRD,,1,1654.9602864583333,12.473706563313803,199.4014689127604,0.73126753171285,13.0,8.0,1968.7611,2022-06-02 08:00:00,6,167.01154
41,593,2024/08/06 22:05:31.000,Oscar Sanchez,SIATA - AMVA,Analista,2022/03/10 08:30:00.000,Baja,6.249951759,-75.621070726,Media,Otro,Antrópico,Medellín,Comuna 13 San Javier,Veinte de Julio,,Carrera 108 A # 36 - 65,0.0,0.0,,,DAGRD,,1,1594.8575721153845,18.81146240234375,67.85621056189903,0.8701036893404447,8.0,7.0,1916.7314,2022-03-10 08:30:00,3,138.92967
42,594,2024/08/06 22:05:31.000,Oscar Sanchez,SIATA - AMVA,Analista,2022/04/05 19:00:00.000,Baja,6.28588445299999,-75.541635863,Media,Deslizamiento,Antrópico,Medellín,Comuna 3 Manrique,San José La Cima No.1,,Calle 94 B # 26 - 38,0.0,0.0,,,DAGRD,,1,1906.8126395089287,16.26409912109375,321.76967075892856,0.2738126005445208,4.0,7.0,1850.9341,2022-04-05 19:00:00,4,208.7147
43,871,2024/08/06 22:05:31.000,Oscar Sanchez,SIATA - AMVA,Analista,2022/08/01 22:00:00.000,Baja,6.28651591599998,-75.551660313,Media,Otro,Antrópico,Medellín,Comuna 1 Popular,Villa Guadalupe,,Calle 95 # 44 - 70,0.0,0.0,,,DAGRD,,1,1622.875,20.121080671037948,270.1529541015625,0.6355976377214704,13.0,7.0,1999.781,2022-08-01 22:00:00,8,136.07399
44,1355,2024/08/06 22:05:31.000,Oscar Sanchez,SIATA - AMVA,Analista,2024/04/30 01:00:00.000,Baja,6.27429349,-75.65080971,Media,Deslizamiento,Antrópico,Medellín,Corregimiento 60 San Cristóbal,Área de Expansión San Cristóbal,,Calle 61 # 152 C - 128 Interior 131,0.0,0.0,,,DAGRD,,1,1961.2855113636363,9.634484030983664,71.46295720880681,0.7359408465298739,16.0,0.0,1864.2473,2024-04-30 01:00:00,4,201.95624
45,1349,2024/08/06 22:05:31.000,Oscar Sanchez,SIATA - AMVA,Analista,2024/04/25 12:00:00.000,Baja,6.27348643489897,-75.4975074345484,Media,Deslizamiento,Antrópico,Medellín,Corregimiento 90 Santa Elena,Piedras Blancas - Matasano,,Carrera 42 Este # 73 - 491 Dirección de referencia,0.0,0.0,,,DAGRD,,1,2425.66015625,6.870149465707632,83.7783954326923,0.6537350141085111,1.0,6.0,1449.4121,2024-04-25 12:00:00,4,182.28564
46,723,2024/08/06 22:05:31.000,Oscar Sanchez,SIATA - AMVA,Analista,2022/06/05 03:00:00.000,Baja,6.26905061299999,-75.537404026,Media,Complejo,Antrópico,Medellín,Comuna 3 Manrique,La Cruz,,Carrera 25 # 75 C - 1 Interior 176,0.0,0.0,,,DAGRD,,1,1982.6668526785713,18.099870954241073,219.12346540178572,0.02527376583644322,4.0,7.0,1850.9341,2022-06-05 03:00:00,6,148.3149
47,379,2024/08/06 22:05:31.000,Oscar Sanchez,SIATA - AMVA,Analista,2021/10/22 16:00:00.000,Baja,6.27004672800001,-75.539623383,Media,Deslizamiento,Antrópico,Medellín,Comuna 3 Manrique,La Cruz,,Carrera 25 # 77 - 80 Interior 180,0.0,0.0,,,DAGRD,,1,1987.2169744318182,23.95535833185369,245.8187588778409,0.735736760226163,4.0,4.0,1850.9341,2021-10-22 16:00:00,10,219.28531
48,380,2024/08/06 22:05:31.000,Oscar Sanchez,SIATA - AMVA,Analista,2021/10/27 23:40:00.000,Baja,6.28276984500002,-75.538024319,Media,Deslizamiento,Antrópico,Medellín,Comuna 3 Manrique,María Cano-Carambolas,,Calle 93 DD # 22 A - 100 Interior 104,0.0,0.0,,,DAGRD,,1,2055.855919471154,28.477874755859375,282.88393930288464,0.6781231806828425,4.0,7.0,1850.9341,2021-10-27 23:40:00,10,219.28531
49,1051,2024/08/06 22:05:31.000,Oscar Sanchez,SIATA - AMVA,Analista,2022/10/27 20:00:00.000,Baja,6.273320716399692,-75.54320930987404,Media,Deslizamiento,Antrópico,Medellín,Comuna 3 Manrique,Oriente,,Carrera 31 # 82 - 20 Interior 112 - Dirección de referencia,0.0,0.0,,,DAGRD,,1,1850.4681919642858,38.661961146763396,265.59537179129467,0.5963001251220703,4.0,4.0,1850.9341,2022-10-27 20:00:00,10,219.28531
50,1052,2024/08/06 22:05:31.000,Oscar Sanchez,SIATA - AMVA,Analista,2022/10/28 01:00:00.000,Baja,6.254181085706202,-75.63191188292154,Media,Deslizamiento,Antrópico,Medellín,Corregimiento 60 San Cristóbal,La Loma,,Calle 39 DA # 119 C - 162 Interior 171,0.0,0.0,,,DAGRD,,1,1744.748798076923,28.6514892578125,47.93363131009615,0.19726483638469988,8.0,8.0,1864.2473,2022-10-28 01:00:00,10,239.82452
51,381,2024/08/06 22:05:31.000,Oscar Sanchez,SIATA - AMVA,Analista,2021/10/31 12:00:00.000,Baja,6.295032902,-75.544536758,Media,Deslizamiento,Antrópico,Medellín,Comuna 1 Popular,Santo Domingo Savio No.1,,Carrera 35 # 107 C - 6,0.0,0.0,,,DAGRD,,1,1791.7356178977273,34.4340126731179,255.78932883522728,0.7153394005515359,4.0,7.0,1850.9341,2021-10-31 12:00:00,10,219.28531
52,1054,2024/08/06 22:05:31.000,Oscar Sanchez,SIATA - AMVA,Analista,2022/10/28 16:00:00.000,Baja,6.23937667299998,-75.537574392,Media,Deslizamiento,Antrópico,Medellín,Comuna 8 Villa Hermosa,San Antonio,,Carrera 14 B # 56 AA - 54 Piso 2,0.0,0.0,,,DAGRD,,1,1743.4998604910713,33.570421491350444,223.41969517299108,0.18546911648341588,4.0,7.0,1969.9814,2022-10-28 16:00:00,10,247.66861
53,482,2024/08/06 22:05:31.000,Oscar Sanchez,SIATA - AMVA,Analista,2022/01/04 22:20:00.000,Baja,6.23432508100001,-75.663348401,Media,Deslizamiento,Antrópico,Medellín,Corregimiento 80 San Antonio de Prado,El Astillero,,Calle 24 B # 83 - 9 Finca VIA ASTILLEROS,0.0,0.0,,,DAGRD,,1,2326.2693810096152,26.21863966721755,218.00037560096155,0.6885998065655048,8.0,6.0,2009.2482,2022-01-04 22:20:00,1,74.56511
54,1345,2024/08/06 22:05:31.000,Oscar Sanchez,SIATA - AMVA,Analista,2024/04/22 10:00:00.000,Baja,6.2691588,-75.5473213,Media,Deslizamiento,Antrópico,Medellín,Comuna 3 Manrique,El Raizal,,Carrera 29 # 76 - 15,0.0,0.0,,,DAGRD,,1,1705.8825120192307,13.183590228740986,248.41575270432693,0.3332379781282865,13.0,7.0,1850.9341,2024-04-22 10:00:00,4,208.7147
55,1057,2024/08/06 22:05:31.000,Oscar Sanchez,SIATA - AMVA,Analista,2022/10/29 02:20:00.000,Baja,6.22698928599999,-75.523668151,Media,Deslizamiento,Antrópico,Medellín,Corregimiento 90 Santa Elena,Las Palmas,,Calle 46 # 12 Este - 190 Casa 1,0.0,0.0,,,DAGRD,,1,1862.6923076923076,30.712604229266827,57.83008282001202,0.3574576744666466,9.0,5.0,1969.9814,2022-10-29 02:20:00,10,247.66861
56,1344,2024/08/06 22:05:31.000,Oscar Sanchez,SIATA - AMVA,Analista,2024/04/21 23:30:00.000,Baja,6.2696192293194,-75.5398409474851,Media,Deslizamiento,Antrópico,Medellín,Comuna 3 Manrique,La Cruz,,Carrera 25 # 77 - 50 Interior 201,0.0,0.0,,,DAGRD,,1,1969.9184194711538,24.043494591346153,230.69512469951923,0.7093048829298753,4.0,7.0,1850.9341,2024-04-21 23:30:00,4,208.7147
57,881,2024/08/06 22:05:31.000,Oscar Sanchez,SIATA - AMVA,Analista,2022/08/05 05:00:00.000,Baja,6.30072386900002,-75.547047532,Media,Deslizamiento,Antrópico,Medellín,Comuna 1 Popular,Popular,,Calle 111 # 42 E - 21 Interior 107,0.0,0.0,,,DAGRD,,1,1655.5805288461538,20.402235764723557,227.04206730769232,0.3693576959463266,11.0,7.0,1744.9886,2022-08-05 05:00:00,8,138.27124
58,1339,2024/08/06 22:05:31.000,Oscar Sanchez,SIATA - AMVA,Analista,2022/10/16 16:00:00.000,Baja,6.2641974,-75.5545989,Media,Deslizamiento,Antrópico,Medellín,Comuna 3 Manrique,Manrique Central No.2,,Calle 71 A # 43 - 90,0.0,0.0,,,DAGRD,,1,1570.176983173077,9.892924382136417,284.53975736177887,0.5753423250638522,13.0,7.0,1999.781,2022-10-16 16:00:00,10,257.31787
59,1336,2024/08/06 22:05:31.000,Oscar Sanchez,SIATA - AMVA,Analista,2018/10/13 10:00:00.000,Baja,6.2832382,-75.6120795,Media,Otro,Antrópico,Medellín,Comuna 7 Robledo,Santa Margarita,,Calle 65 A # 144 - 56 Interior 145,0.0,0.0,,,DAGRD,,1,1852.253018465909,8.23219160600142,180.82026811079547,0.39626576683738013,12.0,2.0,1864.2473,2018-10-13 10:00:00,10,239.82452
60,732,2024/08/06 22:05:31.000,Oscar Sanchez,SIATA - AMVA,Analista,2022/06/06 18:30:00.000,Baja,6.279546332,-75.556836918,Media,Deslizamiento,Antrópico,Medellín,Comuna 4 Aranjuez,La piñuela,,Carrera 49 # 85 C - 132,0.0,0.0,,,DAGRD,,1,1536.1181640625,5.376961390177409,190.25223795572916,0.4422852198282878,13.0,7.0,1999.781,2022-06-06 18:30:00,6,146.82257
61,885,2024/08/06 22:05:31.000,Oscar Sanchez,SIATA - AMVA,Analista,2022/08/02 16:00:00.000,Baja,6.23612134000001,-75.532031411,Media,Otro,Antrópico,Medellín,Comuna 8 Villa Hermosa,Villa Lilliam,,Calle 58 # 5 E - 90 Piso 2,0.0,0.0,,,DAGRD,,1,1738.6974431818182,20.63320645419034,274.64357688210225,0.28895189545371314,13.0,7.0,1969.9814,2022-08-02 16:00:00,8,150.32874
62,886,2024/08/06 22:05:31.000,Oscar Sanchez,SIATA - AMVA,Analista,2022/08/08 05:00:00.000,Baja,6.27516699400002,-75.540543629,Media,Deslizamiento,Antrópico,Medellín,Comuna 3 Manrique,Oriente,,Carrera 25 C # 83 B - 80 Dirección de referencia,0.0,0.0,,,DAGRD,,1,1955.9499289772727,28.8865966796875,293.857421875,0.08537655526941473,4.0,1.0,1850.9341,2022-08-08 05:00:00,8,136.5099
63,487,2024/08/06 22:05:31.000,Oscar Sanchez,SIATA - AMVA,Analista,2022/02/06 17:30:00.000,Baja,6.228092119,-75.532949565,Media,Deslizamiento,Antrópico,Medellín,Comuna 9 Buenos Aires,Barrios de Jesús,,Calle 47 # 2 BB - 115 interior 103,0.0,0.0,,,DAGRD,,1,1747.385967548077,6.179790790264423,314.2931565504808,0.29963077031649077,13.0,7.0,1969.9814,2022-02-06 17:30:00,2,87.701775
64,488,2024/08/06 22:05:31.000,Oscar Sanchez,SIATA - AMVA,Analista,2022/02/06 11:30:00.000,Baja,6.27468716999999,-75.602530299,Media,Deslizamiento,Antrópico,Medellín,Comuna 13 San Javier,El Pesebre,,Calle 58 C # 90 - 48 Interior 104 dirección de referencia,0.0,0.0,,,DAGRD,,1,1578.4017427884614,32.69258469801683,40.84650127704327,0.4584657228910006,12.0,7.0,1864.2473,2022-02-06 11:30:00,2,74.083176
65,889,2024/08/06 22:05:31.000,Oscar Sanchez,SIATA - AMVA,Analista,2022/02/01 19:55:00.000,Baja,6.295246281,-75.540853353,Media,Otro,Antrópico,Medellín,Comuna 1 Popular,Santo Domingo Savio No.2,,Carrera 29 # 107 - 86,0.0,0.0,,,DAGRD,,1,1861.0321514423076,15.697857196514423,335.1980168269231,0.10618980114276592,4.0,7.0,1850.9341,2022-02-01 19:55:00,2,86.90865
66,1068,2024/08/06 22:05:31.000,Oscar Sanchez,SIATA - AMVA,Analista,2022/11/05 15:30:00.000,Baja,6.224490732992134,-75.60836976332772,Media,Deslizamiento,Antrópico,Medellín,Comuna 16 Belén,Altavista,,Calle 20 # 84 C - 100 Interior 108,0.0,0.0,,,DAGRD,,1,1573.8182091346155,18.72708247258113,148.97137920673077,0.6301009838397686,8.0,8.0,1916.7314,2022-11-05 15:30:00,11,197.68546
67,386,2024/08/06 22:05:31.000,Oscar Sanchez,SIATA - AMVA,Analista,2021/11/04 16:30:00.000,Baja,6.26954176200002,-75.542841397,Media,Otro,Antrópico,Medellín,Comuna 3 Manrique,El Raizal,,Carrera 28 AA # 77 - 47 Interior 105,0.0,0.0,,,DAGRD,,1,1815.7052283653845,39.64697265625,263.32666015625,0.6449187352107122,4.0,7.0,1850.9341,2021-11-04 16:30:00,11,197.3326
68,232,2024/08/06 22:05:31.000,Oscar Sanchez,SIATA - AMVA,Analista,2021/05/10 09:10:00.000,Baja,6.2715009,-75.55470091,Media,Deslizamiento,Antrópico,Medellín,Comuna 4 Aranjuez,Campo Valdés No.1,,Calle 78 # 45 - 26,0.0,0.0,,,DAGRD,,1,1567.322265625,10.308737618582589,227.38119070870536,0.635678904397147,13.0,7.0,1999.781,2021-05-10 09:10:00,5,260.7479
69,1070,2024/08/06 22:05:31.000,Oscar Sanchez,SIATA - AMVA,Analista,2022/06/18 13:00:00.000,Baja,6.244188,-75.5422,Media,Deslizamiento,Antrópico,Medellín,Comuna 8 Villa Hermosa,La Libertad,,Carrera 24 AA # 56 E - 98 Interior 102 de referencia,0.0,0.0,,,DAGRD,,1,1707.847377232143,26.546827043805802,286.01944405691967,0.06179693341255188,13.0,8.0,1969.9814,2022-06-18 13:00:00,6,159.34755
70,491,2024/08/06 22:05:31.000,Oscar Sanchez,SIATA - AMVA,Analista,2021/11/30 20:45:00.000,Baja,6.28205926499999,-75.543499596,Media,Deslizamiento,Antrópico,Medellín,Comuna 3 Manrique,San José La Cima No.1,,Carrera 31 # 90 A - 48 Interior 116,0.0,0.0,,,DAGRD,,1,1817.471875,24.89924011230469,276.0277099609375,0.23885602951049806,4.0,7.0,1850.9341,2021-11-30 20:45:00,11,197.3326
71,1335,2024/08/06 22:05:31.000,Oscar Sanchez,SIATA - AMVA,Analista,2023/12/31 02:00:00.000,Baja,6.2909098,-75.5400433,Media,Deslizamiento,Antrópico,Medellín,Comuna 1 Popular,Carpinelo,,Calle 101 AB # 22 D - 37 Interior 151,0.0,0.0,,,DAGRD,,1,1948.9489182692307,28.306368314302883,308.17294546274036,0.8187860342172476,4.0,7.0,1850.9341,2023-12-31 02:00:00,12,107.387
72,1332,2024/08/06 22:05:31.000,Oscar Sanchez,SIATA - AMVA,Analista,2023/12/27 11:35:00.000,Baja,6.25159589399999,-75.559858272,Media,Deslizamiento,Antrópico,Medellín,Comuna 10 La Candelaria,Los Ángeles,,Calle 57 # 42 - 15,0.0,0.0,,,DAGRD,,1,1501.27734375,2.6729346188631924,313.25162020596593,0.2006311850114302,16.0,7.0,1999.781,2023-12-27 11:35:00,12,110.957825
73,1326,2024/08/06 22:05:31.000,Oscar Sanchez,SIATA - AMVA,Analista,2023/12/16 15:00:00.000,Baja,6.297920729,-75.542413543,Media,Deslizamiento,Antrópico,Medellín,Comuna 1 Popular,Santo Domingo Savio No.1,,Calle 108 # 30 - 96 Interior 101,0.0,0.0,,,DAGRD,,1,1805.9866536458333,33.53986612955729,61.595550537109375,0.24863166075486404,4.0,2.0,1850.9341,2023-12-16 15:00:00,12,107.387
74,896,2024/08/06 22:05:31.000,Oscar Sanchez,SIATA - AMVA,Analista,2022/08/05 23:00:00.000,Baja,6.25323446499999,-75.631736756,Media,Deslizamiento,Antrópico,Medellín,Comuna 13 San Javier,El Salado,,Calle 39 DA # 119 C - 210 Interior 306,0.0,0.0,,,DAGRD,,1,1747.3278245192307,28.000643216646633,127.1883544921875,0.27581968674292934,8.0,8.0,1864.2473,2022-08-05 23:00:00,8,141.61206
75,1325,2024/08/06 22:05:31.000,Oscar Sanchez,SIATA - AMVA,Analista,2022/06/15 13:30:00.000,Baja,6.294882742316038,-75.59158516686941,Media,Deslizamiento,Antrópico,Medellín,Comuna 7 Robledo,Aures No.2,,Carrera 95 # 89 - 33 Interior 130,0.0,0.0,,,DAGRD,,1,1862.0266927083333,21.866668701171875,175.99979654947916,0.07270218928654988,12.0,7.0,1999.781,2022-06-15 13:30:00,6,146.82257
76,1313,2024/08/06 22:05:31.000,Oscar Sanchez,SIATA - AMVA,Analista,2021/08/16 15:00:00.000,Baja,6.22760491999998,-75.53706698,Media,Deslizamiento,Antrópico,Medellín,Corregimiento 90 Santa Elena,Las Palmas,,Calle 47 A # 6 AB - 30 Interior 732,0.0,0.0,,,DAGRD,,1,1751.2584134615386,15.589130108173077,344.01998197115387,0.29591615383441633,13.0,4.0,1969.9814,2021-08-16 15:00:00,8,150.32874
77,1078,2024/08/06 22:05:31.000,Oscar Sanchez,SIATA - AMVA,Analista,2022/11/08 20:00:00.000,Baja,6.2105764,-75.5524157,Media,Deslizamiento,Antrópico,Medellín,Comuna 14 El Poblado,Altos del Poblado,,Carrera 15 # 19 Sur - 200,0.0,0.0,,,DAGRD,,1,1731.0690696022727,10.884401494806463,191.03617720170453,0.38802576065063477,13.0,7.0,1968.7611,2022-11-08 20:00:00,11,200.55888
78,393,2024/08/06 22:05:31.000,Oscar Sanchez,SIATA - AMVA,Analista,2021/11/13 16:30:00.000,Baja,6.29463414000003,-75.539938888,Media,Deslizamiento,Antrópico,Medellín,Comuna 1 Popular,La Avanzada,,Calle 107 A # 27 B - 64 Interior 104,0.0,0.0,,,DAGRD,,1,1932.005108173077,27.764446551983173,314.9078838641827,0.5142403382521409,4.0,4.0,1850.9341,2021-11-13 16:30:00,11,197.3326
79,394,2024/08/06 22:05:31.000,Oscar Sanchez,SIATA - AMVA,Analista,2021/11/13 16:10:00.000,Baja,6.2931868,-75.541724,Media,Deslizamiento,Antrópico,Medellín,Comuna 1 Popular,Santo Domingo Savio No.1,,Calle 108 A # 28 AE - 33 INT 163,0.0,0.0,,,DAGRD,,1,1839.88984375,10.239707946777344,278.544287109375,0.0482786774635315,13.0,4.0,1850.9341,2021-11-13 16:10:00,11,197.3326
80,1312,2024/08/06 22:05:31.000,Oscar Sanchez,SIATA - AMVA,Analista,2023/11/09 01:00:00.000,Baja,6.23632764299998,-75.620100622,Media,Deslizamiento,Antrópico,Medellín,Comuna 16 Belén,Las Violetas,,Carrera 100 C # 31 D - 16 Interior 301,0.0,0.0,,,DAGRD,,1,1626.68359375,7.181278228759766,56.81854756673177,0.12513686219851175,12.0,7.0,1916.7314,2023-11-09 01:00:00,11,197.68546
81,1304,2024/08/06 22:05:31.000,Oscar Sanchez,SIATA - AMVA,Analista,2023/05/24 11:56:00.000,Baja,6.28226912600002,-75.595342533,Media,Deslizamiento,Antrópico,Medellín,Comuna 7 Robledo,Aures No.1,,Calle 76 # 89 A - 60,0.0,0.0,,,DAGRD,,1,1664.5862379807693,9.50234633225661,176.9519981971154,0.43584999671349156,2.0,8.0,1999.781,2023-05-24 11:56:00,5,260.7479
82,619,2024/08/06 22:05:31.000,Oscar Sanchez,SIATA - AMVA,Analista,2022/03/05 08:00:00.000,Baja,6.27808977900003,-75.607312859,Media,Deslizamiento,Antrópico,Medellín,Comuna 7 Robledo,Fuente Clara,,Carrera 96 A # 62 D - 03 1445,0.0,0.0,,,DAGRD,,1,1629.755078125,16.119857788085938,213.7138671875,0.37292344570159913,12.0,7.0,1864.2473,2022-03-05 08:00:00,3,132.27205
83,397,2024/08/06 22:05:31.000,Oscar Sanchez,SIATA - AMVA,Analista,2021/11/13 18:00:00.000,Baja,6.29621017599999,-75.539886544,Media,Deslizamiento,Antrópico,Medellín,Comuna 1 Popular,La Avanzada,,Carrera 28 # 107 - 240 Interior 201,0.0,0.0,,,DAGRD,,1,1886.1944754464287,21.741365705217635,264.49850027901783,0.29727942602975027,4.0,7.0,1850.9341,2021-11-13 18:00:00,11,197.3326
84,1303,2024/08/06 22:05:31.000,Oscar Sanchez,SIATA - AMVA,Analista,2023/11/01 10:44:00.000,Baja,6.300944716,-75.54296297,Media,Otro,Antrópico,Medellín,Comuna 1 Popular,Santo Domingo Savio No.1,,Carrera 30 # 111 - 87 Interior 159,0.0,1.0,,,DAGRD,,1,1743.7713341346155,25.041611891526443,30.275860126201923,0.5239264414860652,4.0,7.0,1744.9886,2023-11-01 10:44:00,11,182.52078
85,750,2024/08/06 22:05:31.000,Oscar Sanchez,SIATA - AMVA,Analista,2022/06/12 12:00:00.000,Baja,6.244465685918668,-75.54202256905037,Media,Deslizamiento,Antrópico,Medellín,Comuna 8 Villa Hermosa,La Libertad,,Carrera 24 AA # 56 E - 88 De referencia,0.0,0.0,,,DAGRD,,1,1720.1536458333333,34.88214619954427,271.1244710286458,0.10038578510284424,4.0,4.0,1969.9814,2022-06-12 12:00:00,6,159.34755
86,1302,2024/08/06 22:05:31.000,Oscar Sanchez,SIATA - AMVA,Analista,2023/11/01 05:00:00.000,Baja,6.28452763899998,-75.539514839,Media,Deslizamiento,Antrópico,Medellín,Comuna 3 Manrique,María Cano-Carambolas,,Calle 94 # 24 C - 39,0.0,0.0,,,DAGRD,,1,1996.9845145089287,17.734930855887278,325.070556640625,0.15331574848720006,13.0,4.0,1850.9341,2023-11-01 05:00:00,11,197.3326
87,623,2024/08/06 22:05:31.000,Oscar Sanchez,SIATA - AMVA,Analista,2022/01/22 12:00:00.000,Baja,6.24959646799999,-75.539748398,Media,Deslizamiento,Antrópico,Medellín,Comuna 8 Villa Hermosa,LLanaditas,,Calle 57 # 17 B - 60 Interior 119,0.0,0.0,,,DAGRD,,1,1881.7908653846155,27.2046391413762,190.51017878605768,0.5678988236647385,4.0,7.0,1969.9814,2022-01-22 12:00:00,1,79.97835
88,624,2024/08/06 22:05:31.000,Oscar Sanchez,SIATA - AMVA,Analista,2022/02/02 12:00:00.000,Baja,6.24599895199998,-75.541066119,Media,Deslizamiento,Antrópico,Medellín,Comuna 8 Villa Hermosa,Trece de Noviembre,,Carrera 19 # 56 FG - 16 Dirección de referencia,0.0,0.0,,,DAGRD,,1,1793.834735576923,20.05345505934495,214.23523888221155,0.4441423782935509,4.0,7.0,1969.9814,2022-02-02 12:00:00,2,87.701775
89,311,2024/08/06 22:05:31.000,Oscar Sanchez,SIATA - AMVA,Analista,2021/08/15 18:00:00.000,Baja,6.253891072829902,-75.55118084366566,Media,Deslizamiento,Antrópico,Medellín,Comuna 8 Villa Hermosa,La Ladera,,Calle 65 # 35 A - 2 Interior AC1B-24 Dirección de referencia,0.0,0.0,,,DAGRD,,1,1612.8178267045455,9.419422496448863,212.5403497869318,0.02861515229398554,13.0,7.0,1999.781,2021-08-15 18:00:00,8,136.07399
90,755,2024/08/06 22:05:31.000,Oscar Sanchez,SIATA - AMVA,Analista,2022/06/25 05:00:00.000,Baja,6.25159916500002,-75.538250939,Media,Deslizamiento,Antrópico,Medellín,Comuna 8 Villa Hermosa,LLanaditas,,Carrera 16 D # 57 B - 67 Interior 105,0.0,0.0,,,DAGRD,,1,1990.9615384615386,21.406968336838943,276.9970139723558,0.05259960889816284,4.0,7.0,1850.9341,2022-06-25 05:00:00,6,148.3149
91,912,2024/08/06 22:05:31.000,Oscar Sanchez,SIATA - AMVA,Analista,2022/08/06 16:00:00.000,Baja,6.23605788399999,-75.536104367,Media,Otro,Antrópico,Medellín,Comuna 8 Villa Hermosa,Villatina,,Carrera 10 # 55 - 73 Interior 307,0.0,0.0,,,DAGRD,,1,1687.09765625,37.96301705496652,153.64993722098214,0.502314669745309,7.0,2.0,1969.9814,2022-08-06 16:00:00,8,150.32874
92,1093,2024/08/06 22:05:31.000,Oscar Sanchez,SIATA - AMVA,Analista,2022/11/10 17:00:00.000,Baja,6.24218681399998,-75.548427471,Media,Deslizamiento,Antrópico,Medellín,Comuna 8 Villa Hermosa,El Pinal,,Calle 58 B # 8 - 64,0.0,0.0,,,DAGRD,,1,1550.2179361979167,8.963511149088541,227.4845987955729,0.03546035041411718,13.0,7.0,1969.9814,2022-11-10 17:00:00,11,203.38469
93,913,2024/08/06 22:05:31.000,Oscar Sanchez,SIATA - AMVA,Analista,2022/08/01 01:00:00.000,Baja,6.25191774899997,-75.542814924,Media,Deslizamiento,Antrópico,Medellín,Comuna 8 Villa Hermosa,Los Mangos,,Carrera 22 # 59 A Dirección de referencia,0.0,0.0,,,DAGRD,,1,1813.90380859375,11.011690775553385,234.41434733072916,0.7347413698832194,13.0,7.0,1850.9341,2022-08-01 01:00:00,8,136.5099
94,312,2024/08/06 22:05:31.000,Oscar Sanchez,SIATA - AMVA,Analista,2021/08/16 23:30:00.000,Baja,6.25758245600002,-75.550136661,Media,Otro,Antrópico,Medellín,Comuna 8 Villa Hermosa,Villa Hermosa,,Carrera 37 # 66 - 33,0.0,0.0,,,DAGRD,,1,1654.584735576923,9.670157799353966,289.1582219050481,0.21482159541203424,13.0,7.0,1850.9341,2021-08-16 23:30:00,8,136.5099
95,506,2024/08/06 22:05:31.000,Oscar Sanchez,SIATA - AMVA,Analista,2022/03/02 02:30:00.000,Baja,6.23514672499999,-75.527941752,Media,Deslizamiento,Antrópico,Medellín,Comuna 8 Villa Hermosa,La Sierra,,Carrera 3 Este # 55 H - 15,0.0,0.0,,,DAGRD,,1,1867.66845703125,30.24157206217448,229.30867513020834,0.7300689220428467,4.0,7.0,1969.9814,2022-03-02 02:30:00,3,149.07013
96,758,2024/08/06 22:05:31.000,Oscar Sanchez,SIATA - AMVA,Analista,2022/06/14 06:00:00.000,Baja,6.264529,-75.612807,Media,Deslizamiento,Antrópico,Medellín,Comuna 13 San Javier,Juan XXIII La Quiebra,,Calle 49 B # 99 EE - 221 173,0.0,0.0,,,DAGRD,,1,1630.135516826923,24.04674353966346,256.80506310096155,0.6452221503624549,9.0,7.0,1864.2473,2022-06-14 06:00:00,6,159.97847
97,759,2024/08/06 22:05:31.000,Oscar Sanchez,SIATA - AMVA,Analista,2022/06/14 05:00:00.000,Baja,6.27402604000002,-75.635283749,Media,Deslizamiento,Antrópico,Medellín,Corregimiento 60 San Cristóbal,La Loma,,Calle 57 # 129 - 129 Interior 110,0.0,0.0,,,DAGRD,,1,1875.184344951923,31.554955115685097,22.49366173377404,0.5270015276395358,8.0,8.0,1864.2473,2022-06-14 05:00:00,6,159.97847
98,1301,2024/08/06 22:05:31.000,Oscar Sanchez,SIATA - AMVA,Analista,2023/11/02 05:00:00.000,Baja,6.28185483599998,-75.537561017,Media,Otro,Antrópico,Medellín,Corregimiento 90 Santa Elena,Piedras Blancas - Matasano,,Calle 93 DD # 22 A - 35 Interior 110 (de referencia),0.0,0.0,,,DAGRD,,1,2104.22265625,29.025606427873885,335.75083705357144,0.8906576974051339,13.0,8.0,1850.9341,2023-11-02 05:00:00,11,197.3326
99,1296,2024/08/06 22:05:31.000,Oscar Sanchez,SIATA - AMVA,Analista,2023/10/31 13:00:00.000,Baja,6.23740969200003,-75.535200493,Media,Deslizamiento,Antrópico,Medellín,Comuna 8 Villa Hermosa,San Antonio,,Carrera 10 # 55 - 381 Interior 111,0.0,0.0,,,DAGRD,,1,1731.208984375,27.768943786621094,188.8253377278646,0.41062331199645996,13.0,7.0,1969.9814,2023-10-31 13:00:00,10,247.66861
100,762,2024/08/06 22:05:31.000,Oscar Sanchez,SIATA - AMVA,Analista,2022/06/15 12:00:00.000,Baja,6.297154533362732,-75.54397005832445,Media,Deslizamiento,Antrópico,Medellín,Comuna 1 Popular,Santo Domingo Savio No.1,,Carrera 33 A # 107 C - 109 Interior 112,0.0,0.0,,,DAGRD,,1,1835.123046875,37.97259957449777,257.8790283203125,0.9278313773018974,4.0,8.0,1850.9341,2022-06-15 12:00:00,6,148.3149
101,404,2024/08/06 22:05:31.000,Oscar Sanchez,SIATA - AMVA,Analista,2021/11/23 02:00:00.000,Baja,6.2677861,-75.5444102,Media,Deslizamiento,Antrópico,Medellín,Comuna 3 Manrique,El Raizal,,Calle 71 B # 23 B - 18,0.0,0.0,,,DAGRD,,1,1752.0550426136363,7.532637162642046,206.1435546875,0.4168828183954412,13.0,7.0,1850.9341,2021-11-23 02:00:00,11,197.3326
102,631,2024/08/06 22:05:31.000,Oscar Sanchez,SIATA - AMVA,Analista,2022/04/08 11:00:00.000,Baja,6.29155054099999,-75.573432282,Media,Otro,Antrópico,Medellín,Comuna 5 Castilla,Castilla,,Calle 96 # 70 - 00,0.0,0.0,,,DAGRD,,1,1546.0958658854167,5.441785176595052,125.71175130208333,0.3168821136156718,12.0,7.0,1999.781,2022-04-08 11:00:00,4,210.7456
103,1295,2024/08/06 22:05:31.000,Oscar Sanchez,SIATA - AMVA,Analista,2023/10/30 23:45:00.000,Baja,6.293945384163378,-75.53644107105977,Media,Deslizamiento,Antrópico,Medellín,Comuna 1 Popular,La Avanzada,,Calle 107 # 21 B - 49 Interior 102,0.0,0.0,,,DAGRD,,1,2062.4052734375,29.31248728434245,329.1568196614583,0.10200697183609009,4.0,6.0,1850.9341,2023-10-30 23:45:00,10,219.28531
104,924,2024/08/06 22:05:31.000,Oscar Sanchez,SIATA - AMVA,Analista,2022/08/10 00:00:00.000,Media,6.27824183500002,-75.561200657,Media,Deslizamiento,Antrópico,Medellín,Comuna 4 Aranjuez,Aranjuez,,Calle 85 # 50 D - 20 Dirección de referencia,0.0,0.0,,,DAGRD,,1,1482.2913161057693,8.470557579627403,195.92474834735577,0.10934638977050781,13.0,7.0,1999.781,2022-08-10 00:00:00,8,136.07399
105,1291,2024/08/06 22:05:31.000,Oscar Sanchez,SIATA - AMVA,Analista,2023/10/10 22:01:00.000,Baja,6.284909470744726,-75.53597866669296,Media,Deslizamiento,Antrópico,Medellín,Corregimiento 90 Santa Elena,Piedras Blancas - Matasano,,Calle 94 B # 22 A - 42,0.0,0.0,,,DAGRD,,1,2116.233623798077,33.77093271108774,311.1940354567308,0.5414783037625827,4.0,5.0,1850.9341,2023-10-10 22:01:00,10,219.28531
106,767,2024/08/06 22:05:31.000,Oscar Sanchez,SIATA - AMVA,Analista,2022/06/14 05:00:00.000,Baja,6.273447191,-75.597980939,Media,Deslizamiento,Antrópico,Medellín,Comuna 13 San Javier,El Pesebre,,Calle 59 # 85 - 43,0.0,0.0,,,DAGRD,,1,1539.391826923077,25.91338172325721,36.254871074969955,0.49275376246525693,12.0,7.0,1999.781,2022-06-14 05:00:00,6,146.82257
107,317,2024/08/06 22:05:31.000,Oscar Sanchez,SIATA - AMVA,Analista,2021/08/15 21:00:00.000,Baja,6.2816621,-75.6018947,Media,Deslizamiento,Antrópico,Medellín,Comuna 7 Robledo,Cucaracho,,Carrera 96 A # 62 D - 3 Interior 1465,0.0,0.0,,,DAGRD,,1,1687.3362379807693,28.765596829927883,77.43312424879808,0.25393045865572417,12.0,6.0,1864.2473,2021-08-15 21:00:00,8,141.61206
108,928,2024/08/06 22:05:31.000,Oscar Sanchez,SIATA - AMVA,Analista,2022/08/15 08:00:00.000,Baja,6.23398474499999,-75.534866253,Media,Otro,Antrópico,Medellín,Comuna 8 Villa Hermosa,Las Estancias,,Calle 55 # 8 - 49,0.0,0.0,,,DAGRD,,1,1659.9971454326924,10.69918940617488,109.9039776141827,0.02721620064515334,13.0,7.0,1969.9814,2022-08-15 08:00:00,8,150.32874
109,513,2024/08/06 22:05:31.000,Oscar Sanchez,SIATA - AMVA,Analista,2022/03/06 14:00:00.000,Baja,6.26983982500002,-75.629186534,Media,Deslizamiento,Antrópico,Medellín,Corregimiento 60 San Cristóbal,La Loma,,Calle 53 # 122 - 98 Interior 201,0.0,0.0,,,DAGRD,,1,1817.5838216145833,27.709742228190105,138.18865966796875,0.41383107503255206,8.0,8.0,1864.2473,2022-03-06 14:00:00,3,132.27205
110,930,2024/08/06 22:05:31.000,Oscar Sanchez,SIATA - AMVA,Analista,2022/08/05 05:00:00.000,Baja,6.27466533500001,-75.540748477,Media,Deslizamiento,Antrópico,Medellín,Comuna 3 Manrique,Oriente,,Carrera 25 C # 83 B - 25,0.0,0.0,,,DAGRD,,1,1966.7584635416667,28.63141632080078,335.44761149088544,0.6529965798060099,4.0,7.0,1850.9341,2022-08-05 05:00:00,8,136.5099
111,318,2024/08/06 22:05:31.000,Oscar Sanchez,SIATA - AMVA,Analista,2021/08/20 18:00:00.000,Baja,6.240431742,-75.539608984,Media,Deslizamiento,Antrópico,Medellín,Comuna 8 Villa Hermosa,Villatina,,Carrera 17 A # 56 BB - 18,0.0,0.0,,,DAGRD,,1,1698.3499348958333,12.77667236328125,186.5927937825521,0.00471638763944308,13.0,7.0,1969.9814,2021-08-20 18:00:00,8,150.32874
112,637,2024/08/06 22:05:31.000,Oscar Sanchez,SIATA - AMVA,Analista,2022/04/10 15:00:00.000,Baja,6.29497674200002,-75.590958817,Media,Deslizamiento,Antrópico,Medellín,Comuna 7 Robledo,Aures No.2,,Carrera 95 # 89 - 33 Interior 132,0.0,0.0,,,DAGRD,,1,1861.94140625,9.16737801688058,173.95242745535714,0.21357793467385427,12.0,7.0,1999.781,2022-04-10 15:00:00,4,210.7456
113,772,2024/08/06 22:05:31.000,Oscar Sanchez,SIATA - AMVA,Analista,2022/06/15 18:30:00.000,Baja,6.295390473,-75.550477861,Media,Deslizamiento,Antrópico,Medellín,Comuna 2 Santa Cruz,Villa del Socorro,,Calle 107 # 43 B - 61 301,0.0,0.0,,,DAGRD,,1,1626.5042067307693,25.717975323016827,48.1412353515625,0.4793902543874887,13.0,7.0,1850.9341,2022-06-15 18:30:00,6,148.3149
114,773,2024/08/06 22:05:31.000,Oscar Sanchez,SIATA - AMVA,Analista,2022/06/15 18:00:00.000,Baja,6.27158974500003,-75.599165282,Media,Deslizamiento,Antrópico,Medellín,Comuna 13 San Javier,El Pesebre,,Carrera 83 # 57 - 15 Interior 1118,0.0,0.0,,,DAGRD,,1,1574.7001201923076,23.20427527794471,137.77330603966345,0.1450188526740441,2.0,7.0,1999.781,2022-06-15 18:00:00,6,146.82257
115,1284,2024/08/06 22:05:31.000,Oscar Sanchez,SIATA - AMVA,Analista,2023/10/02 16:00:00.000,Baja,6.25571033900002,-75.559712651,Media,Otro,Antrópico,Medellín,Comuna 8 Villa Hermosa,San Miguel,,Carrera 45 D # 60 - 52,0.0,0.0,,,DAGRD,,1,1523.55859375,8.829115731375557,247.19199916294642,0.6785688400268555,13.0,7.0,1999.781,2023-10-02 16:00:00,10,257.31787
116,1280,2024/08/06 22:05:31.000,Oscar Sanchez,SIATA - AMVA,Analista,2020/11/18 07:00:00.000,Baja,6.24856592100002,-75.538537879,Media,Deslizamiento,Antrópico,Medellín,Comuna 8 Villa Hermosa,Trece de Noviembre,,Carrera 17 A # 56 H - 04,0.0,0.0,,,DAGRD,,1,1897.3470982142858,27.402082170758927,301.3910435267857,0.19315242767333984,4.0,7.0,1969.9814,2020-11-18 07:00:00,11,203.38469
117,937,2024/08/06 22:05:31.000,Oscar Sanchez,SIATA - AMVA,Analista,2021/03/24 19:30:00.000,Baja,6.20373199800002,-75.605309563,Media,Deslizamiento,Antrópico,Medellín,Comuna 16 Belén,La Hondonada,,Carrera 82 # 9 A Sur - 28,0.0,0.0,,,DAGRD,,1,1635.8100961538462,13.526477520282452,186.58766526442307,0.6919470566969651,8.0,7.0,1916.7314,2021-03-24 19:30:00,3,138.92967
118,321,2024/08/06 22:05:31.000,Oscar Sanchez,SIATA - AMVA,Analista,2021/06/23 18:00:00.000,Baja,6.262770977,-75.540496687,Media,Deslizamiento,Antrópico,Medellín,Comuna 3 Manrique,Versalles No.2,,Carrera 25 # 68 AE - 50 Interior 136,0.0,0.0,,,DAGRD,,1,1917.5634765625,22.07482147216797,262.3639322916667,0.8624043464660645,13.0,7.0,1850.9341,2021-06-23 18:00:00,6,148.3149
119,939,2024/08/06 22:05:31.000,Oscar Sanchez,SIATA - AMVA,Analista,2022/08/30 10:00:00.000,Baja,6.295438886,-75.550608885,Media,Deslizamiento,Antrópico,Medellín,Comuna 2 Santa Cruz,Villa del Socorro,,Calle 107 # 43 B - 71,0.0,0.0,,,DAGRD,,1,1627.86328125,25.53328377859933,32.392347063337056,0.8127241134643555,13.0,7.0,1850.9341,2022-08-30 10:00:00,8,136.5099
120,1277,2024/08/06 22:05:31.000,Oscar Sanchez,SIATA - AMVA,Analista,2023/09/10 23:00:00.000,Baja,6.266700814112762,-75.53974671146426,Media,Deslizamiento,Antrópico,Medellín,Comuna 3 Manrique,Versalles No.2,,Calle 71 B # 24 DF - 7 Interior 127,0.0,0.0,,,DAGRD,,1,1935.4820963541667,29.946194966634113,337.8345540364583,0.4401504198710124,4.0,7.0,1850.9341,2023-09-10 23:00:00,9,166.66548
121,642,2024/08/06 22:05:31.000,Oscar Sanchez,SIATA - AMVA,Analista,2022/04/17 19:30:00.000,Baja,6.272579625528568,-75.6141720557954,Media,Deslizamiento,Antrópico,Medellín,Comuna 7 Robledo,Olaya Herrera,,Calle 57 A # 105 - 43 Casa 1 - Dirección de referencia -,0.0,0.0,,,DAGRD,,1,1719.540318080357,31.02243913922991,227.03470284598214,0.5900677272251674,9.0,4.0,1864.2473,2022-04-17 19:30:00,4,201.95624
122,1276,2024/08/06 22:05:31.000,Oscar Sanchez,SIATA - AMVA,Analista,2023/09/11 03:00:00.000,Baja,6.274554732169282,-75.6207946356946,Media,Deslizamiento,Antrópico,Medellín,Comuna 7 Robledo,Santa Margarita,,Calle 62 # 109 A - 30 Casa 1 - Dirección de referencia,0.0,0.0,,,DAGRD,,1,1719.1182391826924,14.933148897611177,202.27668644831732,0.5256800284752479,12.0,5.0,1864.2473,2023-09-11 03:00:00,9,193.07854
123,324,2024/08/06 22:05:31.000,Oscar Sanchez,SIATA - AMVA,Analista,2021/08/28 12:30:00.000,Baja,6.25519498800003,-75.55278051,Media,Deslizamiento,Antrópico,Medellín,Comuna 8 Villa Hermosa,San Miguel,,Carrera 39 # 64 - 06,0.0,2.0,,,DAGRD,,1,1617.2837357954545,7.219060724431818,209.42223011363637,0.8979428898204457,13.0,7.0,1999.781,2021-08-28 12:30:00,8,136.07399
124,781,2024/08/06 22:05:31.000,Oscar Sanchez,SIATA - AMVA,Analista,2022/07/13 10:53:00.000,Baja,6.26960810136132,-75.61363262368288,Media,Deslizamiento,Antrópico,Medellín,Corregimiento 60 San Cristóbal,Área de Expansión San Cristóbal,,Calle 49 B # 99 EE - 21 De referencia,0.0,0.0,,,DAGRD,,1,1756.2731370192307,25.816434420072117,162.692626953125,0.9446223332331731,8.0,8.0,1864.2473,2022-07-13 10:53:00,7,130.3031
125,1126,2024/08/06 22:05:31.000,Oscar Sanchez,SIATA - AMVA,Analista,2022/11/23 13:00:00.000,Baja,6.22000518700003,-75.635716665,Media,Deslizamiento,Antrópico,Medellín,Corregimiento 70 Altavista,Buga Patio Bonito,,Carrera 112 # 13 - 201 Dirección de referencia,0.0,0.0,,,DAGRD,,1,1788.3807198660713,11.334224155970983,305.8486328125,0.5397082056318011,12.0,7.0,1916.7314,2022-11-23 13:00:00,11,197.68546
126,945,2024/08/06 22:05:31.000,Oscar Sanchez,SIATA - AMVA,Analista,2021/11/13 03:00:00.000,Baja,6.294972492,-75.539782405,Media,Deslizamiento,Antrópico,Medellín,Comuna 1 Popular,La Avanzada,,Calle 107 B # 27 B - 063,0.0,0.0,,,DAGRD,,1,1929.1344401041667,29.307535807291668,313.86651611328125,0.5580901304880778,4.0,4.0,1850.9341,2021-11-13 03:00:00,11,197.3326
127,946,2024/08/06 22:05:31.000,Oscar Sanchez,SIATA - AMVA,Analista,2022/08/09 12:00:00.000,Baja,6.24770479900002,-75.626009159,Media,Deslizamiento,Antrópico,Medellín,Comuna 13 San Javier,El Corazón,,Calle 34 CC # 112 F - 107,0.0,0.0,,,DAGRD,,1,1737.5838068181818,28.234119762073863,122.5067138671875,0.9558107202703302,8.0,7.0,1916.7314,2022-08-09 12:00:00,8,149.64743
128,782,2024/08/06 22:05:31.000,Oscar Sanchez,SIATA - AMVA,Analista,2022/06/17 12:00:00.000,Baja,6.29728859400001,-75.544566779,Media,Deslizamiento,Antrópico,Medellín,Comuna 1 Popular,Santo Domingo Savio No.1,,Calle 108 # 34 - 12,0.0,0.0,,,DAGRD,,1,1788.831280048077,27.210040752704327,264.33505483774036,0.8401746016282302,4.0,1.0,1850.9341,2022-06-17 12:00:00,6,148.3149
129,645,2024/08/06 22:05:31.000,Oscar Sanchez,SIATA - AMVA,Analista,2021/06/20 21:30:00.000,Baja,6.23524717200002,-75.540074587,Media,Deslizamiento,Antrópico,Medellín,Comuna 8 Villa Hermosa,Villatina,,Carrera 15 # 52 - 53 Interior 324,0.0,0.0,,,DAGRD,,1,1654.0919744318182,11.489789095791904,187.20900656960228,0.9693150086836382,13.0,7.0,1969.9814,2021-06-20 21:30:00,6,159.34755
130,784,2024/08/06 22:05:31.000,Oscar Sanchez,SIATA - AMVA,Analista,2022/06/18 13:45:00.000,Baja,6.26501391579549,-75.634921176243,Media,Deslizamiento,Antrópico,Medellín,Corregimiento 60 San Cristóbal,La Loma,,Calle 53 # 122 - 94 Interior 108,0.0,0.0,,,DAGRD,,1,1869.3694661458333,11.198717753092447,118.88185628255208,0.9001204967498779,8.0,5.0,1864.2473,2022-06-18 13:45:00,6,159.97847
131,1132,2024/08/06 22:05:31.000,Oscar Sanchez,SIATA - AMVA,Analista,2022/11/23 15:00:00.000,Baja,6.231080436048516,-75.53382772571257,Media,Deslizamiento,Antrópico,Medellín,Comuna 9 Buenos Aires,Barrios de Jesús,,Carrera 5 # 49 C - 09 de referencia,0.0,0.0,,,DAGRD,,1,1675.5550130208333,39.98885854085287,43.423004150390625,0.4001099268595378,13.0,7.0,1969.9814,2022-11-23 15:00:00,11,203.38469
132,325,2024/08/06 22:05:31.000,Oscar Sanchez,SIATA - AMVA,Analista,2021/08/28 16:20:00.000,Baja,6.27129626999999,-75.598822107,Media,Deslizamiento,Antrópico,Medellín,Comuna 13 San Javier,El Pesebre,,Carrera 83 # 56 - 11,0.0,0.0,,,DAGRD,,1,1556.072544642857,25.116986955915177,113.37436349051339,0.0869896411895752,2.0,7.0,1999.781,2021-08-28 16:20:00,8,136.07399
133,416,2024/08/06 22:05:31.000,Oscar Sanchez,SIATA - AMVA,Analista,2021/11/13 16:30:00.000,Baja,6.264529,-75.612807,Media,Deslizamiento,Antrópico,Medellín,Comuna 13 San Javier,Juan XXIII La Quiebra,,Carrera 99 B # 49 AB - 63 Interior 104,0.0,0.0,,,DAGRD,,1,1630.135516826923,24.04674353966346,256.80506310096155,0.6452221503624549,9.0,7.0,1864.2473,2021-11-13 16:30:00,11,186.08627
134,417,2024/08/06 22:05:31.000,Oscar Sanchez,SIATA - AMVA,Analista,2021/12/02 07:00:00.000,Baja,6.20313892299998,-75.602999955,Media,Deslizamiento,Antrópico,Medellín,Comuna 16 Belén,La Hondonada,,Calle 9 Sur # 79 C - 139,0.0,0.0,,,DAGRD,,1,1597.5382254464287,14.57697514125279,118.4178466796875,0.38775811876569477,8.0,7.0,1916.7314,2021-12-02 07:00:00,12,104.65902
135,524,2024/08/06 22:05:31.000,Oscar Sanchez,SIATA - AMVA,Analista,2022/03/09 14:00:00.000,Baja,6.238664245638618,-75.541847604439,Media,Deslizamiento,Antrópico,Medellín,Comuna 8 Villa Hermosa,La Libertad,,Calle 56 A # 17 A - 111 Dirección de referencia,0.0,0.0,,,DAGRD,,1,1652.8592247596155,18.4883305476262,255.20470252403845,0.7181373742910532,4.0,7.0,1969.9814,2022-03-09 14:00:00,3,149.07013
136,1275,2024/08/06 22:05:31.000,Oscar Sanchez,SIATA - AMVA,Analista,2023/09/10 09:00:00.000,Baja,6.263949062131484,-75.60916924065577,Media,Deslizamiento,Antrópico,Medellín,Comuna 13 San Javier,Metropolitano,,Calle 49 BB # 96 - 129 Interior 0110 De referencia,0.0,0.0,,,DAGRD,,1,1608.2384440104167,25.391515096028645,179.39542643229166,0.8206984202067057,9.0,2.0,1864.2473,2023-09-10 09:00:00,9,193.07854
137,526,2024/08/06 22:05:31.000,Oscar Sanchez,SIATA - AMVA,Analista,2022/03/14 16:30:00.000,Baja,6.24937306800001,-75.62533587,Media,Deslizamiento,Antrópico,Medellín,Comuna 13 San Javier,Las Independencias,,Carrera 113 # 37 - 42,0.0,0.0,,,DAGRD,,1,1649.204326923077,39.86553016075721,329.3302659254808,0.26395357572115385,8.0,7.0,1916.7314,2022-03-14 16:30:00,3,138.92967
138,1272,2024/08/06 22:05:31.000,Oscar Sanchez,SIATA - AMVA,Analista,2021/07/24 14:00:00.000,Baja,6.23267357899999,-75.536443536,Media,Deslizamiento,Antrópico,Medellín,Comuna 8 Villa Hermosa,Las Estancias,,Carrera 8 A # 52 - 48 Interior 106,0.0,0.0,,,DAGRD,,1,1656.2294170673076,27.981543907752403,308.39244666466345,0.7363179280207708,13.0,7.0,1969.9814,2021-07-24 14:00:00,7,138.8304
139,420,2024/08/06 22:05:31.000,Oscar Sanchez,SIATA - AMVA,Analista,2021/11/30 23:30:00.000,Baja,6.27008579099999,-75.541565246,Media,Deslizamiento,Antrópico,Medellín,Comuna 3 Manrique,La Cruz,,Carrera 27 C # 77 - 108,0.0,0.0,,,DAGRD,,1,1906.7950846354167,25.675699869791668,278.74216715494794,0.7135866483052572,4.0,7.0,1850.9341,2021-11-30 23:30:00,11,197.3326
140,421,2024/08/06 22:05:31.000,Oscar Sanchez,SIATA - AMVA,Analista,2021/12/01 01:00:00.000,Baja,6.28221559899998,-75.538068534,Media,Deslizamiento,Antrópico,Medellín,Comuna 3 Manrique,María Cano-Carambolas,,Calle 93 # 22 A - 61,0.0,0.0,,,DAGRD,,1,2070.5755208333335,28.486109415690105,316.2297770182292,0.842060407002767,4.0,7.0,1850.9341,2021-12-01 01:00:00,12,107.387
141,422,2024/08/06 22:05:31.000,Oscar Sanchez,SIATA - AMVA,Analista,2021/11/30 20:30:00.000,Baja,6.27332659199999,-75.542386822,Media,Deslizamiento,Antrópico,Medellín,Comuna 3 Manrique,Oriente,,Calle 82 B # 27 - 51,0.0,0.0,,,DAGRD,,1,1911.17578125,22.816279820033483,225.152587890625,0.8640259334019252,4.0,7.0,1850.9341,2021-11-30 20:30:00,11,197.3326
142,531,2024/08/06 22:05:31.000,Oscar Sanchez,SIATA - AMVA,Analista,2022/02/17 05:00:00.000,Baja,6.29003846699999,-75.541261078,Media,Deslizamiento,Antrópico,Medellín,Comuna 1 Popular,Carpinelo,,Carrera 29 # 100 C - 84 Interior 171,0.0,0.0,,,DAGRD,,1,1898.4786931818182,28.4990761496804,263.52024147727275,0.7919197949496183,4.0,7.0,1850.9341,2022-02-17 05:00:00,2,86.90865
143,532,2024/08/06 22:05:31.000,Oscar Sanchez,SIATA - AMVA,Analista,2021/02/19 09:30:00.000,Baja,6.2286167,-75.5283978,Media,Deslizamiento,Antrópico,Medellín,Comuna 9 Buenos Aires,Ocho de Marzo,,Calle 47 E # 1 B - 51 dirección de referencia,0.0,0.0,,,DAGRD,,1,1780.9313151041667,27.65380859375,299.9126383463542,0.8564632733662924,7.0,7.0,1969.9814,2021-02-19 09:30:00,2,87.701775
144,1261,2024/08/06 22:05:31.000,Oscar Sanchez,SIATA - AMVA,Analista,2023/06/10 21:00:00.000,Baja,6.174025472819742,-75.65447909890257,Media,Deslizamiento,Antrópico,Medellín,Corregimiento 80 San Antonio de Prado,Área de Expansión San Antonio de Prado,,Carrera 78 A # 52 Sur - 76,0.0,0.0,,,DAGRD,,1,1893.8328450520833,22.097422281901043,181.17106119791666,0.5424701372782389,14.0,6.0,2044.8639,2023-06-10 21:00:00,6,175.25836
145,1243,2024/08/06 22:05:31.000,Oscar Sanchez,SIATA - AMVA,Analista,2023/05/24 15:00:00.000,Baja,6.27240155800001,-75.542008277,Media,Deslizamiento,Antrópico,Medellín,Comuna 3 Manrique,Oriente,,Carrera 27 C # 79 C - 175,0.0,0.0,,,DAGRD,,1,1877.3738606770833,24.069997151692707,232.2801513671875,0.009298125902811686,4.0,1.0,1850.9341,2023-05-24 15:00:00,5,223.04109
146,799,2024/08/06 22:05:31.000,Oscar Sanchez,SIATA - AMVA,Analista,2022/06/21 06:00:00.000,Baja,6.27026939299998,-75.539298706,Media,Deslizamiento,Antrópico,Medellín,Comuna 3 Manrique,La Cruz,,Calle 79 C # 24 C - 105 Interior 187,0.0,0.0,,,DAGRD,,1,2010.7208533653845,21.494835486778847,265.71255258413464,0.8318651639498197,4.0,4.0,1850.9341,2022-06-21 06:00:00,6,148.3149
147,1149,2024/08/06 22:05:31.000,Oscar Sanchez,SIATA - AMVA,Analista,2022/10/31 10:00:00.000,Baja,6.241420778088108,-75.5174492845702,Media,Deslizamiento,Antrópico,Medellín,Corregimiento 90 Santa Elena,Media Luna,,Vereda Media Luna - Kilómetro 4,0.0,0.0,,,DAGRD,,1,2097.5856119791665,32.99678293863932,266.71372477213544,0.5846551259358724,1.0,1.0,1969.9814,2022-10-31 10:00:00,10,247.66861
148,425,2024/08/06 22:05:31.000,Oscar Sanchez,SIATA - AMVA,Analista,2021/11/30 23:00:00.000,Baja,6.27428107899999,-75.608504142,Media,Deslizamiento,Antrópico,Medellín,Comuna 7 Robledo,Olaya Herrera,,Calle 57 D # 98 B - 19 Interior 119,0.0,0.0,,,DAGRD,,1,1658.9125279017858,28.781060355050222,132.09774344308036,0.2622682367052351,2.0,7.0,1864.2473,2021-11-30 23:00:00,11,186.08627
149,1237,2024/08/06 22:05:31.000,Oscar Sanchez,SIATA - AMVA,Analista,2023/05/25 21:00:00.000,Baja,6.29497068400002,-75.542817166,Media,Deslizamiento,Antrópico,Medellín,Comuna 1 Popular,Santo Domingo Savio No.1,,Carrera 33 # 107 A - 2,0.0,0.0,,,DAGRD,,1,1855.2576622596155,19.354210486778847,226.06550480769232,0.4343615678640512,4.0,7.0,1850.9341,2023-05-25 21:00:00,5,223.04109
150,1152,2024/08/06 22:05:31.000,Oscar Sanchez,SIATA - AMVA,Analista,2022/10/25 14:00:00.000,Baja,6.29635354999999,-75.541541057,Media,Deslizamiento,Antrópico,Medellín,Comuna 1 Popular,Santo Domingo Savio No.1,,Carrera 30 C # 107 A - 21,0.0,0.0,,,DAGRD,,1,1828.9093424479167,37.29568990071615,69.74183654785156,0.17703052361806235,4.0,8.0,1850.9341,2022-10-25 14:00:00,10,219.28531
151,1153,2024/08/06 22:05:31.000,Oscar Sanchez,SIATA - AMVA,Analista,2022/10/23 22:00:00.000,Baja,6.17717195300003,-75.650406924,Media,Deslizamiento,Antrópico,Medellín,Corregimiento 80 San Antonio de Prado,San Antonio de Prado,,Calle 50 C Sur # 70 - 06,0.0,0.0,,,DAGRD,,1,1816.5365084134614,5.948402991661658,166.77195387620193,0.37906808119553786,14.0,7.0,2023.1007,2022-10-23 22:00:00,10,242.23367
152,1154,2024/08/06 22:05:31.000,Oscar Sanchez,SIATA - AMVA,Analista,2023/01/02 05:00:00.000,Baja,6.29230725319933,-75.53420331005147,Media,Caída de rocas,Antrópico,Medellín,Corregimiento 90 Santa Elena,Piedras Blancas - Matasano,,Calle 107 B # 21 BB - 41 Interior 110 Contiguo De Referencia,0.0,0.0,,,DAGRD,,1,2181.1111778846152,22.62981473482572,294.8122746394231,0.8066263932448167,4.0,6.0,1850.9341,2023-01-02 05:00:00,1,77.457184
153,1235,2024/08/06 22:05:31.000,Oscar Sanchez,SIATA - AMVA,Analista,2023/05/27 15:00:00.000,Baja,6.298801882040618,-75.55285834899374,Media,Deslizamiento,Antrópico,Medellín,Comuna 2 Santa Cruz,La Francia,,Carrera 49 A # 107 - 106,0.0,0.0,,,DAGRD,,1,1524.3063151041667,34.43970489501953,211.001953125,0.6006026268005371,12.0,7.0,1999.781,2023-05-27 15:00:00,5,260.7479
154,538,2024/08/06 22:05:31.000,Oscar Sanchez,SIATA - AMVA,Analista,2021/03/17 15:00:00.000,Baja,6.19368205299997,-75.552364765,Media,Deslizamiento,Antrópico,Medellín,Corregimiento 90 Santa Elena,Las Palmas,,Carrera 17 # 2 Sur - 10,0.0,0.0,,,DAGRD,,1,1884.7102864583333,12.197484334309896,296.6566975911458,0.19781519969304404,13.0,4.0,2252.5664,2021-03-17 15:00:00,3,162.57391
155,804,2024/08/06 22:05:31.000,Oscar Sanchez,SIATA - AMVA,Analista,2022/04/10 05:00:00.000,Baja,6.26497153999998,-75.540788838,Media,Deslizamiento,Antrópico,Medellín,Comuna 3 Manrique,Versalles No.2,,Carrera 25 # 69 D - 99 Dirección de referencia,0.0,0.0,,,DAGRD,,1,1896.1832682291667,33.296783447265625,283.2388509114583,0.7136014302571615,13.0,7.0,1850.9341,2022-04-10 05:00:00,4,208.7147
156,1229,2024/08/06 22:05:31.000,Oscar Sanchez,SIATA - AMVA,Analista,2023/05/24 14:00:00.000,Baja,6.237208734032502,-75.5305272203143,Media,Deslizamiento,Antrópico,Medellín,Comuna 8 Villa Hermosa,Villa Turbay,,Carrera 5 # 55 G - 3 Interior 232,0.0,0.0,,,DAGRD,,1,1821.8305288461538,34.11669921875,207.315673828125,0.1953595601595365,4.0,7.0,1969.9814,2023-05-24 14:00:00,5,239.54109
157,1226,2024/08/06 22:05:31.000,Oscar Sanchez,SIATA - AMVA,Analista,2023/05/23 22:30:00.000,Baja,6.29312999699999,-75.543840186,Media,Deslizamiento,Antrópico,Medellín,Comuna 1 Popular,Santo Domingo Savio No.1,,Calle 103 # 32 A - 126 Interior 102,0.0,0.0,,,DAGRD,,1,1808.6763822115386,30.607931283804085,236.46367938701923,0.851204725412222,4.0,7.0,1850.9341,2023-05-23 22:30:00,5,223.04109
158,430,2024/08/06 22:05:31.000,Oscar Sanchez,SIATA - AMVA,Analista,2021/11/30 23:30:00.000,Baja,6.27029845700002,-75.541367835,Media,Deslizamiento,Antrópico,Medellín,Comuna 3 Manrique,La Cruz,,Calle 77 # 25 - 108 Interior 115,0.0,0.0,,,DAGRD,,1,1920.4524739583333,26.674275716145832,254.9791259765625,0.7046558062235514,4.0,7.0,1850.9341,2021-11-30 23:30:00,11,197.3326
159,1225,2024/08/06 22:05:31.000,Oscar Sanchez,SIATA - AMVA,Analista,2023/05/23 23:00:00.000,Baja,6.274330046488362,-75.60636719653844,Media,Otro,Antrópico,Medellín,Comuna 13 San Javier,Blanquizal,,Carrera 92 DD # 57 C - 61 Interior 107 De referencia,0.0,0.0,,,DAGRD,,1,1622.694561298077,24.751748891977165,70.53826434795673,0.5832554010244516,12.0,7.0,1864.2473,2023-05-23 23:00:00,5,247.5928
160,335,2024/08/06 22:05:31.000,Oscar Sanchez,SIATA - AMVA,Analista,2021/09/05 14:45:00.000,Baja,6.292094366662386,-75.53509798449625,Media,Deslizamiento,Antrópico,Medellín,Corregimiento 90 Santa Elena,Piedras Blancas - Matasano,,Calle 106 BB # 21 - 131,0.0,0.0,,,DAGRD,,1,2142.155048076923,21.108666053185097,297.2830153245192,0.6298336615929236,4.0,8.0,1850.9341,2021-09-05 14:45:00,9,166.66548
161,1224,2024/08/06 22:05:31.000,Oscar Sanchez,SIATA - AMVA,Analista,2023/05/21 23:00:00.000,Baja,6.273302645839026,-75.5432005181877,Media,Otro,Antrópico,Medellín,Comuna 3 Manrique,Oriente,,Carrera 31 # 82 - 50 Interior 104 Dirección de referencia,0.0,0.0,,,DAGRD,,1,1852.3064630681818,39.05727871981534,266.62857333096593,0.59937199679288,4.0,4.0,1850.9341,2023-05-21 23:00:00,5,223.04109
162,1223,2024/08/06 22:05:31.000,Oscar Sanchez,SIATA - AMVA,Analista,2023/05/21 22:00:00.000,Baja,6.219316679542086,-75.50206835097201,Media,Otro,Antrópico,Medellín,Corregimiento 90 Santa Elena,Media Luna,,Carrera 35 Este # 19 - 21,0.0,0.0,,,DAGRD,,1,2514.74609375,17.562355041503906,248.549560546875,0.3559190205165318,1.0,7.0,1969.9814,2023-05-21 22:00:00,5,239.54109
163,435,2024/08/06 22:05:31.000,Oscar Sanchez,SIATA - AMVA,Analista,2021/11/30 23:00:00.000,Baja,6.27377919499997,-75.612063229,Media,Deslizamiento,Antrópico,Medellín,Comuna 7 Robledo,Olaya Herrera,,Calle 58 # 102 A - 196 Interior 104,0.0,0.0,,,DAGRD,,1,1700.326923076923,19.97956261268029,86.25714580829327,0.8864421844482422,9.0,7.0,1864.2473,2021-11-30 23:00:00,11,186.08627
164,547,2024/08/06 22:05:31.000,Oscar Sanchez,SIATA - AMVA,Analista,2022/03/28 14:00:00.000,Baja,6.28458415599999,-75.563452801,Media,Deslizamiento,Antrópico,Medellín,Comuna 4 Aranjuez,Palermo,,Carrera 53 # 91 - 126,0.0,0.0,,,DAGRD,,1,1495.4171316964287,7.497735159737723,270.2526157924107,0.642392635345459,12.0,7.0,1999.781,2022-03-28 14:00:00,3,149.55247
165,1167,2024/08/06 22:05:31.000,Oscar Sanchez,SIATA - AMVA,Analista,2023/01/14 23:59:00.000,Baja,6.27121827299999,-75.626441826,Media,Deslizamiento,Antrópico,Medellín,Corregimiento 60 San Cristóbal,La Loma,,Carrera 120 F # 54 - 195 Interior 114,0.0,0.0,,,DAGRD,,1,1846.6177884615386,27.94580078125,295.940673828125,0.5814560376680814,8.0,8.0,1864.2473,2023-01-14 23:59:00,1,63.983105
166,814,2024/08/06 22:05:31.000,Oscar Sanchez,SIATA - AMVA,Analista,2022/06/28 12:00:00.000,Baja,6.29304328799998,-75.545096634,Media,Deslizamiento,Antrópico,Medellín,Comuna 1 Popular,Granizal,,Calle 105 # 36 A - 12,0.0,0.0,,,DAGRD,,1,1761.849609375,19.468804677327473,264.4762369791667,0.6566886901855469,13.0,7.0,1850.9341,2022-06-28 12:00:00,6,148.3149
167,1219,2024/08/06 22:05:31.000,Oscar Sanchez,SIATA - AMVA,Analista,2022/10/20 14:00:00.000,Baja,6.24906421063696,-75.62550793013509,Media,Deslizamiento,Antrópico,Medellín,Comuna 13 San Javier,Las Independencias,,Carrera 113 C # 36 C - 42,0.0,0.0,,,DAGRD,,1,1663.9962565104167,33.099772135416664,250.0162556966146,0.16198229789733887,8.0,7.0,1916.7314,2022-10-20 14:00:00,10,239.29034
168,339,2024/08/06 22:05:31.000,Oscar Sanchez,SIATA - AMVA,Analista,2021/09/05 20:00:00.000,Baja,6.290676335364356,-75.53724373340789,Media,Caída de rocas,Antrópico,Medellín,Comuna 1 Popular,Carpinelo,,Calle 102 A # 22 B - 11 Interior 118,0.0,0.0,,,DAGRD,,1,2074.72265625,34.41885098544034,245.82972301136363,0.7169348976828835,4.0,7.0,1850.9341,2021-09-05 20:00:00,9,166.66548
169,983,2024/08/06 22:05:31.000,Oscar Sanchez,SIATA - AMVA,Analista,2022/09/29 14:00:00.000,Baja,6.237681845359804,-75.5344471588855,Media,Otro,Antrópico,Medellín,Comuna 8 Villa Hermosa,San Antonio,,Carrera 10 # 55 - 366 Interior 132,0.0,0.0,,,DAGRD,,1,1754.0850360576924,24.025376539963943,230.22228064903845,0.8313225966233474,13.0,7.0,1969.9814,2022-09-29 14:00:00,9,185.45418
170,580,2024/08/06 22:05:31.000,Oscar Sanchez,SIATA - AMVA,Analista,2022/04/05 05:00:00.000,Baja,6.27197106400001,-75.615801698,Media,Deslizamiento,Antrópico,Medellín,Comuna 7 Robledo,Olaya Herrera,,Carrera 107 # 55 - 142 Interior 155,0.0,0.0,,,DAGRD,,1,1747.371844951923,34.63338763897236,337.1452073317308,0.5823733990009015,8.0,1.0,1864.2473,2022-04-05 05:00:00,4,201.95624
171,1218,2024/08/06 22:05:31.000,Oscar Sanchez,SIATA - AMVA,Analista,2023/05/05 18:00:00.000,Baja,6.27928024400001,-75.541421899,Media,Otro,Antrópico,Medellín,Comuna 3 Manrique,María Cano-Carambolas,,Carrera 24 C # 90 - 136 Interior 115,0.0,0.0,,,DAGRD,,1,1982.978515625,22.71685929731889,288.4718128551136,0.7708308480002664,4.0,4.0,1850.9341,2023-05-05 18:00:00,5,223.04109
172,1217,2024/08/06 22:05:31.000,Oscar Sanchez,SIATA - AMVA,Analista,2023/04/29 09:30:00.000,Baja,6.28961533799998,-75.592261516,Media,Deslizamiento,Antrópico,Medellín,Comuna 7 Robledo,Aures No.2,,Carrera 92 A # 78 B - 124,0.0,0.0,,,DAGRD,,1,1759.5882457386363,20.806714144620027,192.83620383522728,0.010539547963575884,12.0,8.0,1999.781,2023-04-29 09:30:00,4,210.7456
173,1215,2024/08/06 22:05:31.000,Oscar Sanchez,SIATA - AMVA,Analista,2023/04/22 18:00:00.000,Baja,6.279092295690446,-75.54116018711288,Media,Deslizamiento,Antrópico,Medellín,Comuna 3 Manrique,María Cano-Carambolas,,Carrera 23 # 86 B - 112 Interior 104,0.0,0.0,,,DAGRD,,1,2003.4031575520833,34.11730448404948,287.98126220703125,0.83854873975118,4.0,4.0,1850.9341,2023-04-22 18:00:00,4,208.7147
174,343,2024/08/06 22:05:31.000,Oscar Sanchez,SIATA - AMVA,Analista,2021/09/15 16:00:00.000,Baja,6.29450034799999,-75.540743489,Media,Deslizamiento,Antrópico,Medellín,Comuna 1 Popular,La Avanzada,,Carrera 28 B # 106 BA - 41 Interior 110,0.0,0.0,,,DAGRD,,1,1894.3444010416667,32.58184560139974,300.16591389973956,0.24677574634552002,4.0,7.0,1850.9341,2021-09-15 16:00:00,9,166.66548
175,344,2024/08/06 22:05:31.000,Oscar Sanchez,SIATA - AMVA,Analista,2021/09/08 06:25:00.000,Baja,6.23418761200003,-75.534484993,Media,Deslizamiento,Antrópico,Medellín,Comuna 8 Villa Hermosa,Villa Lilliam,,Calle 55 # 8 - 20 Interior 124,0.0,0.0,,,DAGRD,,1,1661.892857142857,5.10222407749721,255.84715053013392,0.019399659974234446,13.0,7.0,1969.9814,2021-09-08 06:25:00,9,185.45418
176,1214,2024/08/06 22:05:31.000,Oscar Sanchez,SIATA - AMVA,Analista,2022/11/03 02:00:00.000,Baja,6.346106814683798,-75.71441276766303,Media,Deslizamiento,Antrópico,Medellín,Corregimiento 50 San Sebastián de Palmitas,La Sucia,,Vía el Morrón # 238,0.0,0.0,,,DAGRD,,1,1344.6365411931818,29.75089610706676,275.95481178977275,0.8931651548905806,17.0,1.0,1887.7502,2022-11-03 02:00:00,11,202.34149
177,444,2024/08/06 22:05:31.000,Oscar Sanchez,SIATA - AMVA,Analista,2021/12/02 13:00:00.000,Baja,6.280937892,-75.538738285,Media,Flujo,Antrópico,Medellín,Corregimiento 90 Santa Elena,Piedras Blancas - Matasano,,Carrera 22 # 90 B - 31,0.0,0.0,,,DAGRD,,1,2117.953425480769,29.038499098557693,300.6659405048077,0.8522497323843149,4.0,7.0,1850.9341,2021-12-02 13:00:00,12,107.387
178,825,2024/08/06 22:05:31.000,Oscar Sanchez,SIATA - AMVA,Analista,2022/06/27 23:00:00.000,Baja,6.261295858639614,-75.55526880339787,Media,Deslizamiento,Antrópico,Medellín,Comuna 3 Manrique,Manrique Central No.2,,Carrera 44 # 66 - 130 Interior 145,0.0,0.0,,,DAGRD,,1,1584.6127485795455,28.18313876065341,278.07907936789775,0.7918143705888228,13.0,7.0,1999.781,2022-06-27 23:00:00,6,146.82257
179,1212,2024/08/06 22:05:31.000,Oscar Sanchez,SIATA - AMVA,Analista,2023/04/21 15:00:00.000,Baja,6.229255657134582,-75.53129919815153,Media,Deslizamiento,Antrópico,Medellín,Comuna 9 Buenos Aires,Juan Pablo II,,Calle 49 A # 2 AB - 117 Interior 118,0.0,0.0,,,DAGRD,,1,1710.61328125,35.66255881569602,98.91834605823864,0.751695372841575,13.0,7.0,1969.9814,2023-04-21 15:00:00,4,212.92358
180,1202,2024/08/06 22:05:31.000,Oscar Sanchez,SIATA - AMVA,Analista,2023/02/17 15:00:00.000,Baja,6.261843634,-75.539493588,Media,Deslizamiento,Antrópico,Medellín,Comuna 3 Manrique,Versalles No.2,,Carrera 24 E # 69 D - 64,0.0,0.0,,,DAGRD,,1,1985.839092548077,28.825725848858173,276.8860426682692,0.8527884850135217,4.0,8.0,1850.9341,2023-02-17 15:00:00,2,86.90865
181,1184,2024/08/06 22:05:31.000,Oscar Sanchez,SIATA - AMVA,Analista,2023/01/20 16:30:00.000,Baja,6.29579758300002,-75.536782785,Media,Deslizamiento,Antrópico,Medellín,Comuna 1 Popular,La Avanzada,,Carrera 23 A # 107 F - 30 Dirección de referencia,0.0,0.0,,,DAGRD,,1,1970.3656850961538,19.046346811147835,39.08664175180289,0.6036854523878831,4.0,8.0,1850.9341,2023-01-20 16:30:00,1,77.457184
182,1185,2024/08/06 22:05:31.000,Oscar Sanchez,SIATA - AMVA,Analista,2023/01/26 17:00:00.000,Baja,6.26202147700002,-75.55490504,Media,Deslizamiento,Antrópico,Medellín,Comuna 3 Manrique,Manrique Central No.2,,Carrera 44 # 66 - 162 Interior 103,0.0,0.0,,,DAGRD,,1,1576.959735576923,16.75019249549279,299.46029897836536,0.4703709528996394,13.0,7.0,1999.781,2023-01-26 17:00:00,1,77.50231
183,829,2024/08/06 22:05:31.000,Oscar Sanchez,SIATA - AMVA,Analista,2022/06/27 18:00:00.000,Baja,6.260955932,-75.55487535,Media,Deslizamiento,Antrópico,Medellín,Comuna 3 Manrique,Manrique Central No.2,,Carrera 44 # 66 - 130 int 145,0.0,0.0,,,DAGRD,,1,1584.4415457589287,27.866487775530135,194.93756975446428,0.6203812871660505,13.0,7.0,1999.781,2022-06-27 18:00:00,6,146.82257
184,1187,2024/08/06 22:05:31.000,Oscar Sanchez,SIATA - AMVA,Analista,2023/01/15 12:00:00.000,Baja,6.26980274700003,-75.535696806,Media,Deslizamiento,Antrópico,Medellín,Comuna 3 Manrique,La Cruz,,Carrera 24 # 75 C - 17,0.0,0.0,,,DAGRD,,1,2046.6242897727273,23.081677523526277,183.12464488636363,0.24021157351407138,4.0,7.0,1850.9341,2023-01-15 12:00:00,1,77.457184
185,997,2024/08/06 22:05:31.000,Oscar Sanchez,SIATA - AMVA,Analista,2022/10/18 20:00:00.000,Baja,6.20826604899997,-75.559318729,Media,Deslizamiento,Antrópico,Medellín,Comuna 14 El Poblado,Las Lomas No.1,,Carrera 30 # 8 B - 81,0.0,0.0,,,DAGRD,,1,1641.7280649038462,1.9344159639798677,93.02559720552884,0.3849815221933218,13.0,7.0,1968.7611,2022-10-18 20:00:00,10,266.4711
186,1507,2024/08/06 22:05:31.000,Oscar Sanchez,SIATA - AMVA,Analista,2024/06/27 10:00:00.000,Baja,6.264020440116644,-75.61226991455206,Media,Deslizamiento,Antrópico,Medellín,Comuna 13 San Javier,Juan XXIII La Quiebra,,Calle 49 AA # 99 AB - 29 Interior 108,0.0,0.0,,,DAGRD,,1,1649.5099283854167,25.751200358072918,203.1833292643229,0.8921321233113607,9.0,7.0,1864.2473,2024-06-27 10:00:00,6,159.97847
187,1498,2024/08/06 22:05:31.000,Oscar Sanchez,SIATA - AMVA,Analista,2024/07/02 01:00:00.000,Baja,6.253735434343358,-75.62326413865735,Media,Deslizamiento,Antrópico,Medellín,Comuna 13 San Javier,Veinte de Julio,,Calle 39 D # 109 - 76 Interior 109 Dirección de referencia,0.0,0.0,,,DAGRD,,1,1571.626201923077,16.338404728816105,164.57140174278845,0.059656308247492865,12.0,8.0,1864.2473,2024-07-02 01:00:00,7,130.3031
188,414,2024/08/06 22:05:31.000,Oscar Sanchez,SIATA - AMVA,Analista,2021/11/29 08:30:00.000,Baja,6.231329858886522,-75.66865036585237,Media,Deslizamiento,Lluvia,Medellín,Corregimiento 80 San Antonio de Prado,El Astillero,,Carrera 90 # 24 - 381 Dirección de referencia,0.0,0.0,,,DAGRD,,1,2140.6971153846152,14.393049973707933,286.3577223557692,0.018041143814722698,5.0,6.0,2009.2482,2021-11-29 08:30:00,11,201.73386
189,415,2024/08/06 22:05:31.000,Oscar Sanchez,SIATA - AMVA,Analista,2021/11/30 19:40:00.000,Baja,6.17198452600002,-75.647433141,Media,Complejo,Lluvia,Medellín,Corregimiento 80 San Antonio de Prado,San Antonio de Prado,,Carrera 67 # 57 A Sur - 16 Bloque 15,0.0,0.0,,,DAGRD,,1,1793.5660511363637,10.367249922318893,126.85557972301136,0.7561303919011896,14.0,8.0,2023.1007,2021-11-30 19:40:00,11,210.69188
190,418,2024/08/06 22:05:31.000,Oscar Sanchez,SIATA - AMVA,Analista,2021/11/30 23:00:00.000,Baja,6.27299223400001,-75.54221653,Media,Deslizamiento,Lluvia,Medellín,Comuna 3 Manrique,Oriente,,Calle 82 B # 27 - 51 Interior 103,0.0,0.0,,,DAGRD,,1,1906.0268110795455,30.404840642755683,205.49538352272728,0.6497705632990057,4.0,7.0,1850.9341,2021-11-30 23:00:00,11,197.3326
191,419,2024/08/06 22:05:31.000,Oscar Sanchez,SIATA - AMVA,Analista,2021/12/01 03:00:00.000,Baja,6.294774818901192,-75.59389143996246,Media,Deslizamiento,Lluvia,Medellín,Comuna 7 Robledo,Aures No.2,,Calle 81 # 96 - 117 De referencia,0.0,0.0,,,DAGRD,,1,1889.9809194711538,30.077481783353367,128.98180213341345,0.08260829632098858,12.0,8.0,1999.781,2021-12-01 03:00:00,12,110.957825
192,423,2024/08/06 22:05:31.000,Oscar Sanchez,SIATA - AMVA,Analista,2021/11/30 23:30:00.000,Baja,6.27193459799997,-75.543981522,Media,Deslizamiento,Lluvia,Medellín,Comuna 3 Manrique,Santa Inés,,Carrera 30 C # 81 - 30 Interior 147,0.0,0.0,,,DAGRD,,1,1797.7920673076924,26.59966336763822,174.19596980168268,0.9534931916456956,4.0,7.0,1850.9341,2021-11-30 23:30:00,11,197.3326
193,424,2024/08/06 22:05:31.000,Oscar Sanchez,SIATA - AMVA,Analista,2021/11/30 20:00:00.000,Baja,6.29360209499998,-75.595681251,Media,Deslizamiento,Lluvia,Medellín,Comuna 7 Robledo,Aures No.2,,Calle 79 BB # 96 - 5 Interior 1111,0.0,0.0,,,DAGRD,,1,1877.2252604166667,13.488356272379557,166.70008341471353,0.5299471219380697,12.0,7.0,1999.781,2021-11-30 20:00:00,11,214.80737
194,426,2024/08/06 22:05:31.000,Oscar Sanchez,SIATA - AMVA,Analista,2021/11/30 23:00:00.000,Baja,6.27957056899999,-75.622362408,Media,Deslizamiento,Lluvia,Medellín,Corregimiento 60 San Cristóbal,Área de Expansión Pajarito,,Calle 63 AE # 117 F - 45 Bloque 8 (9804),0.0,0.0,,,DAGRD,,1,1832.7171223958333,23.021779378255207,172.60638427734375,0.46829740206400555,12.0,7.0,1864.2473,2021-11-30 23:00:00,11,186.08627
195,427,2024/08/06 22:05:31.000,Oscar Sanchez,SIATA - AMVA,Analista,2021/11/30 23:00:00.000,Baja,6.28280846500002,-75.634132065,Media,Deslizamiento,Lluvia,Medellín,Corregimiento 60 San Cristóbal,Pedregal Alto,,Carrera 129 # 64 A - 317,0.0,0.0,,,DAGRD,,1,1918.4164663461538,8.537725008451021,138.99012169471155,0.06809175931490384,12.0,6.0,1864.2473,2021-11-30 23:00:00,11,186.08627
196,428,2024/08/06 22:05:31.000,Oscar Sanchez,SIATA - AMVA,Analista,2021/11/30 23:00:00.000,Baja,6.27909923800001,-75.557441829,Media,Flujo,Lluvia,Medellín,Comuna 4 Aranjuez,La piñuela,,Calle 86 # 49 A - 50,0.0,0.0,,,DAGRD,,1,1533.706143465909,15.97235107421875,134.80197975852272,0.7223815050992098,13.0,7.0,1999.781,2021-11-30 23:00:00,11,214.80737
197,429,2024/08/06 22:05:31.000,Oscar Sanchez,SIATA - AMVA,Analista,2021/11/30 23:00:00.000,Baja,6.26793929000002,-75.623746997,Media,Flujo,Lluvia,Medellín,Corregimiento 60 San Cristóbal,La Loma,,Calle 52 # 107 - 480 Interior 107,0.0,0.0,,,DAGRD,,1,1738.6676432291667,29.530344645182293,274.7395426432292,0.13430501023928323,8.0,6.0,1864.2473,2021-11-30 23:00:00,11,186.08627
198,431,2024/08/06 22:05:31.000,Oscar Sanchez,SIATA - AMVA,Analista,2021/11/30 20:00:00.000,Baja,6.2832382,-75.6120795,Media,Deslizamiento,Lluvia,Medellín,Corregimiento 60 San Cristóbal,Área de Expansión Pajarito,,Calle 108 C # 62 A - 26,0.0,0.0,,,DAGRD,,1,1852.253018465909,8.23219160600142,180.82026811079547,0.39626576683738013,12.0,2.0,1864.2473,2021-11-30 20:00:00,11,186.08627
199,432,2024/08/06 22:05:31.000,Oscar Sanchez,SIATA - AMVA,Analista,2021/11/30 23:00:00.000,Baja,6.27844214700002,-75.609449556,Media,Deslizamiento,Lluvia,Medellín,Comuna 7 Robledo,Santa Margarita,,Carrera 98 B # 62 D - 06,0.0,0.0,,,DAGRD,,1,1682.999112215909,16.58046375621449,130.3403986150568,0.5135886018926447,12.0,2.0,1864.2473,2021-11-30 23:00:00,11,186.08627
200,433,2024/08/06 22:05:31.000,Oscar Sanchez,SIATA - AMVA,Analista,2021/12/01 23:00:00.000,Baja,6.289918161,-75.542664961,Media,Deslizamiento,Lluvia,Medellín,Comuna 1 Popular,La Esperanza No.2,,Carrera 32 # 101 - 22 Interior 207,0.0,0.0,,,DAGRD,,1,1827.2581380208333,39.998372395833336,224.45357259114584,0.3180394172668457,13.0,7.0,1850.9341,2021-12-01 23:00:00,12,107.387
201,434,2024/08/06 22:05:31.000,Oscar Sanchez,SIATA - AMVA,Analista,2021/11/30 00:00:00.000,Media,6.269889269526946,-75.61348398805016,Media,Deslizamiento,Lluvia,Medellín,Corregimiento 60 San Cristóbal,Área de Expansión San Cristóbal,,Calle 49 B # 99 EE - 221 Interior 280,0.0,0.0,,,DAGRD,,1,1761.6420454545455,24.28036221590909,137.8668545809659,0.6259522871537642,8.0,3.0,1864.2473,2021-11-30 00:00:00,11,186.08627
202,436,2024/08/06 22:05:31.000,Oscar Sanchez,SIATA - AMVA,Analista,2021/12/02 13:12:00.000,Baja,6.275069266055342,-75.54251689309571,Media,Flujo,Lluvia,Medellín,Comuna 3 Manrique,Oriente,,Carrera 22 A # 91 - 9 Dirección de referencia.,0.0,0.0,,,DAGRD,,1,1869.4196213942307,49.06116661658654,193.77445162259616,0.140815413915194,4.0,1.0,1850.9341,2021-12-02 13:12:00,12,107.387
203,437,2024/08/06 22:05:31.000,Oscar Sanchez,SIATA - AMVA,Analista,2021/12/01 23:00:00.000,Baja,6.26671238900002,-75.539839481,Media,Deslizamiento,Lluvia,Medellín,Comuna 3 Manrique,Versalles No.2,,Calle 71 B # 24 D - 13 Interior 105,0.0,0.0,,,DAGRD,,1,1931.4389204545455,30.318520285866477,328.75870028409093,0.49688352238048206,4.0,7.0,1850.9341,2021-12-01 23:00:00,12,107.387
204,438,2024/08/06 22:05:31.000,Oscar Sanchez,SIATA - AMVA,Analista,2021/11/30 23:00:00.000,Baja,6.26962804800002,-75.541203219,Media,Flujo,Lluvia,Medellín,Comuna 3 Manrique,La Cruz,,Calle 77 # 25 - 92,0.0,0.0,,,DAGRD,,1,1926.3930288461538,19.287557748647835,262.89272836538464,0.9334134321946365,4.0,7.0,1850.9341,2021-11-30 23:00:00,11,197.3326
205,439,2024/08/06 22:05:31.000,Oscar Sanchez,SIATA - AMVA,Analista,2021/12/01 23:00:00.000,Baja,6.282254964,-75.540302617,Media,Flujo,Lluvia,Medellín,Comuna 3 Manrique,María Cano-Carambolas,,Calle 90 BC # 23 - 35 Interior 117,0.0,0.0,,,DAGRD,,1,2008.8650568181818,25.264609596946023,253.20707563920453,0.37780995802445844,4.0,7.0,1850.9341,2021-12-01 23:00:00,12,107.387
206,440,2024/08/06 22:05:31.000,Oscar Sanchez,SIATA - AMVA,Analista,2021/11/30 00:00:00.000,Media,6.27421780828394,-75.60132780547123,Media,Deslizamiento,Lluvia,Medellín,Comuna 13 San Javier,El Pesebre,,Calle 58 B # 88 - 110,0.0,0.0,,,DAGRD,,1,1591.7907151442307,31.07050030048077,43.70491379957933,0.5250794704143817,2.0,7.0,1864.2473,2021-11-30 00:00:00,11,186.08627
207,441,2024/08/06 22:05:31.000,Oscar Sanchez,SIATA - AMVA,Analista,2021/12/01 00:00:00.000,Media,6.30552105800001,-75.585304721,Media,Otro,Lluvia,Medellín,Comuna 6 Doce de Octubre,El Triunfo,,Carrera 86 B # 102 B - 11 Interior 110,0.0,0.0,,,DAGRD,,1,1875.1927083333333,22.475687662760418,97.99348958333333,0.07526273528734843,9.0,7.0,1745.7523,2021-12-01 00:00:00,12,95.16503
208,442,2024/08/06 22:05:31.000,Oscar Sanchez,SIATA - AMVA,Analista,2021/11/30 23:00:00.000,Baja,6.290943071233514,-75.6078429331206,Media,Deslizamiento,Lluvia,Medellín,Corregimiento 60 San Cristóbal,Área de Expansión Pajarito,,Carrera 98 AB # 67 - 152,0.0,0.0,,,DAGRD,,1,1920.1478794642858,30.230564662388392,67.40713500976562,0.21039918490818568,2.0,8.0,1864.2473,2021-11-30 23:00:00,11,186.08627
209,443,2024/08/06 22:05:31.000,Oscar Sanchez,SIATA - AMVA,Analista,2021/11/30 23:00:00.000,Baja,6.27426009800001,-75.627731223,Media,Deslizamiento,Lluvia,Medellín,Corregimiento 60 San Cristóbal,La Loma,,Carrera 131 B # 58 - 57,0.0,0.0,,,DAGRD,,1,1811.044642857143,16.258061000279017,127.249755859375,0.4199790954589844,8.0,7.0,1864.2473,2021-11-30 23:00:00,11,186.08627
210,445,2024/08/06 22:05:31.000,Oscar Sanchez,SIATA - AMVA,Analista,2021/12/01 23:00:00.000,Baja,6.29266247599998,-75.539282564,Media,Flujo,Lluvia,Medellín,Comuna 1 Popular,La Avanzada,,Carrera 27 B # 102 C - 24 Interior 117,0.0,0.0,,,DAGRD,,1,1961.9786931818182,28.558416193181817,234.46360085227272,0.3898250406438654,13.0,7.0,1850.9341,2021-12-01 23:00:00,12,107.387
211,446,2024/08/06 22:05:31.000,Oscar Sanchez,SIATA - AMVA,Analista,2021/11/30 23:00:00.000,Baja,6.27275585899997,-75.540563688,Media,Deslizamiento,Lluvia,Medellín,Comuna 3 Manrique,La Cruz,,Calle 81 # 25 - 30 Interior 110,0.0,0.0,,,DAGRD,,1,1963.5330636160713,34.503875732421875,269.88094656808033,0.7043454306466239,4.0,7.0,1850.9341,2021-11-30 23:00:00,11,197.3326
212,447,2024/08/06 22:05:31.000,Oscar Sanchez,SIATA - AMVA,Analista,2021/11/30 16:00:00.000,Baja,6.289393453,-75.557555701,Media,Deslizamiento,Lluvia,Medellín,Comuna 2 Santa Cruz,La Rosa,,Carrera 49 B # 97 - 71,0.0,0.0,,,DAGRD,,1,1500.4978841145833,31.92059834798177,245.853759765625,0.32931047677993774,12.0,7.0,1999.781,2021-11-30 16:00:00,11,214.80737
213,448,2024/08/06 22:05:31.000,Oscar Sanchez,SIATA - AMVA,Analista,2021/11/30 16:00:00.000,Baja,6.29463225699999,-75.541605992,Media,Deslizamiento,Lluvia,Medellín,Comuna 1 Popular,Santo Domingo Savio No.1,,Carrera 32 # 107 - 00,0.0,0.0,,,DAGRD,,1,1865.8284254807693,16.283190213716946,194.29597355769232,0.838778569148137,4.0,7.0,1850.9341,2021-11-30 16:00:00,11,197.3326
214,449,2024/08/06 22:05:31.000,Oscar Sanchez,SIATA - AMVA,Analista,2021/11/30 20:00:00.000,Baja,6.30033032099999,-75.585909356,Media,Deslizamiento,Lluvia,Medellín,Comuna 6 Doce de Octubre,Picachito,,Carrera 86 B # 98 B - 16,0.0,0.0,,,DAGRD,,1,1854.936748798077,23.56206805889423,149.68974421574518,0.5886703637930063,9.0,2.0,1999.781,2021-11-30 20:00:00,11,214.80737
215,450,2024/08/06 22:05:31.000,Oscar Sanchez,SIATA - AMVA,Analista,2021/11/30 20:00:00.000,Baja,6.29327921100003,-75.590787864,Media,Deslizamiento,Lluvia,Medellín,Comuna 7 Robledo,Aures No.2,,Carrera 93 A # 87 - 34,0.0,0.0,,,DAGRD,,1,1815.311434659091,12.573797052556818,138.6503240411932,0.08225307139483365,12.0,7.0,1999.781,2021-11-30 20:00:00,11,214.80737
216,451,2024/08/06 22:05:31.000,Oscar Sanchez,SIATA - AMVA,Analista,2021/11/30 20:00:00.000,Baja,6.264569607,-75.624730766,Media,Deslizamiento,Lluvia,Medellín,Corregimiento 60 San Cristóbal,La Loma,,Calle 48 D # 110 - 274 Interior 175,0.0,0.0,,,DAGRD,,1,1711.4677734375,33.630574544270836,20.579031626383465,0.6770571867624918,8.0,7.0,1864.2473,2021-11-30 20:00:00,11,186.08627
217,452,2024/08/06 22:05:31.000,Oscar Sanchez,SIATA - AMVA,Analista,2021/11/30 07:30:00.000,Baja,6.18708608399999,-75.640018104,Media,Deslizamiento,Lluvia,Medellín,Corregimiento 80 San Antonio de Prado,San Antonio de Prado,,Calle 36 D Sur # 55 E - 10,0.0,0.0,,,DAGRD,,1,1688.8904622395833,6.045770009358724,127.76731363932292,0.1446278691291809,16.0,8.0,2023.1007,2021-11-30 07:30:00,11,210.69188
218,453,2024/08/06 22:05:31.000,Oscar Sanchez,SIATA - AMVA,Analista,2021/12/04 00:00:00.000,Media,6.28442357599999,-75.542734069,Media,Deslizamiento,Lluvia,Medellín,Comuna 3 Manrique,San José La Cima No.1,,Carrera 31 # 93 - 30,0.0,0.0,,,DAGRD,,1,1853.060546875,29.724664861505683,275.3504749644886,0.3788128766146573,4.0,4.0,1850.9341,2021-12-04 00:00:00,12,107.387
219,454,2024/08/06 22:05:31.000,Oscar Sanchez,SIATA - AMVA,Analista,2021/11/30 23:00:00.000,Baja,6.284500785800382,-75.54267029585394,Media,Deslizamiento,Lluvia,Medellín,Comuna 3 Manrique,San José La Cima No.1,,Carrera 31 # 93 - 30,0.0,0.0,,,DAGRD,,1,1856.5304129464287,31.806692940848215,273.79105050223217,0.264013477734157,4.0,4.0,1850.9341,2021-11-30 23:00:00,11,197.3326
220,455,2024/08/06 22:05:31.000,Oscar Sanchez,SIATA - AMVA,Analista,2021/04/17 15:30:00.000,Baja,6.18467682599999,-75.647706678,Media,Deslizamiento,Lluvia,Medellín,Corregimiento 80 San Antonio de Prado,San Antonio de Prado,,Carrera 66 A # 41 Sur - 03,0.0,0.0,,,DAGRD,,1,1787.05224609375,16.144948323567707,182.7543741861979,0.510915199915568,14.0,8.0,2023.1007,2021-04-17 15:30:00,4,226.25804
221,456,2024/08/06 22:05:31.000,Oscar Sanchez,SIATA - AMVA,Analista,2021/11/30 23:00:00.000,Baja,6.2819625,-75.5895265,Media,Deslizamiento,Lluvia,Medellín,Comuna 7 Robledo,Bello Horizonte,,Calle 87 # 90 - 11,0.0,0.0,,,DAGRD,,1,1631.0404575892858,15.122933523995536,148.5240478515625,0.6827400752476284,12.0,7.0,1999.781,2021-11-30 23:00:00,11,214.80737
222,458,2024/08/06 22:05:31.000,Oscar Sanchez,SIATA - AMVA,Analista,2021/11/30 20:00:00.000,Baja,6.28769872607665,-75.60838982286019,Media,Flujo,Lluvia,Medellín,Corregimiento 60 San Cristóbal,Área de Expansión Pajarito,,Calle 66 HB # 97 AC - 21,0.0,0.0,,,DAGRD,,1,1879.160907451923,22.99450448843149,120.09298940805289,0.1322786624615009,12.0,2.0,1864.2473,2021-11-30 20:00:00,11,186.08627
223,459,2024/08/06 22:05:31.000,Oscar Sanchez,SIATA - AMVA,Analista,2021/11/30 20:00:00.000,Baja,6.26468539400003,-75.62465179,Media,Deslizamiento,Lluvia,Medellín,Corregimiento 60 San Cristóbal,La Loma,,Calle 48 D # 110 - 274 Interior 153,0.0,0.0,,,DAGRD,,1,1701.6482872596155,25.77991192157452,122.97947340745192,0.41998478082510143,8.0,7.0,1864.2473,2021-11-30 20:00:00,11,186.08627
224,460,2024/08/06 22:05:31.000,Oscar Sanchez,SIATA - AMVA,Analista,2021/11/30 22:30:00.000,Baja,6.28987364099999,-75.592337797,Media,Deslizamiento,Lluvia,Medellín,Comuna 7 Robledo,Aures No.2,,Carrera 92 A # 78 B - 119 Interior 132,0.0,0.0,,,DAGRD,,1,1764.8843149038462,24.69733135516827,215.83574969951923,0.02682920373403109,12.0,7.0,1999.781,2021-11-30 22:30:00,11,214.80737
225,461,2024/08/06 22:05:31.000,Oscar Sanchez,SIATA - AMVA,Analista,2021/11/30 22:00:00.000,Baja,6.28496752400002,-75.589989641,Media,Deslizamiento,Lluvia,Medellín,Comuna 7 Robledo,El Diamante,,Calle 78 # 87 - 69 Interior 128,0.0,0.0,,,DAGRD,,1,1660.4108664772727,13.64619168368253,144.09940962357953,0.029257682236758144,12.0,8.0,1999.781,2021-11-30 22:00:00,11,214.80737
226,462,2024/08/06 22:05:31.000,Oscar Sanchez,SIATA - AMVA,Analista,2021/12/23 07:44:00.000,Baja,6.31096414201539,-75.57162828159048,Media,Deslizamiento,Lluvia,Medellín,Comuna 6 Doce de Octubre,Santander,,Carrera 61 B # 21 A,0.0,0.0,,,DAGRD,,1,,,,0.13060967127482095,,,1745.7523,2021-12-23 07:44:00,12,95.16503
227,463,2024/08/06 22:05:31.000,Oscar Sanchez,SIATA - AMVA,Analista,2021/12/11 23:30:00.000,Baja,6.271250141432128,-75.59820966935109,Media,Deslizamiento,Lluvia,Medellín,Comuna 13 San Javier,El Pesebre,,Calle 56 # 82 A - 62,0.0,0.0,,,DAGRD,,1,1559.4556107954545,33.37859829989347,235.1071111505682,0.5314878983931108,2.0,7.0,1999.781,2021-12-11 23:30:00,12,110.957825
228,464,2024/08/06 22:05:31.000,Oscar Sanchez,SIATA - AMVA,Analista,2021/12/21 12:30:00.000,Baja,6.288324923,-75.547834022,Media,Deslizamiento,Lluvia,Medellín,Comuna 1 Popular,Moscú No.2,,Carrera 38 B # 97 - 73,0.0,0.0,,,DAGRD,,1,1708.765625,24.304349459134617,243.74729567307693,0.09041672486525315,13.0,7.0,1850.9341,2021-12-21 12:30:00,12,107.387
229,465,2024/08/06 22:05:31.000,Oscar Sanchez,SIATA - AMVA,Analista,2021/12/13 19:00:00.000,Baja,6.26924439726374,-75.55099048523059,Media,Deslizamiento,Lluvia,Medellín,Comuna 3 Manrique,El Pomar,,Dirección de referencia,0.0,0.0,,,DAGRD,,1,1623.0310997596155,30.739173302283653,311.57994666466345,0.5763954382676345,13.0,8.0,1999.781,2021-12-13 19:00:00,12,110.957825
230,466,2024/08/06 22:05:31.000,Oscar Sanchez,SIATA - AMVA,Analista,2021/03/26 04:00:00.000,Baja,6.262805682707834,-75.6206496434442,Media,Deslizamiento,Lluvia,Medellín,Comuna 13 San Javier,El Socorro,,Calle 48 CC # 103 B - 84,0.0,0.0,,,DAGRD,,1,1566.5464242788462,24.9958989070012,181.65440955528845,0.037559179159311146,12.0,8.0,1864.2473,2021-03-26 04:00:00,3,132.27205
231,468,2024/08/06 22:05:31.000,Oscar Sanchez,SIATA - AMVA,Analista,2021/12/07 00:00:00.000,Media,6.280222743635648,-75.60063516332974,Media,Deslizamiento,Lluvia,Medellín,Comuna 7 Robledo,Cucaracho,,Calle 65 # 90 - 90 Dirección de Referencia,0.0,0.0,,,DAGRD,,1,1640.177734375,20.687283833821613,36.42718760172526,0.12901893258094788,12.0,6.0,1999.781,2021-12-07 00:00:00,12,110.957825
232,469,2024/08/06 22:05:31.000,Oscar Sanchez,SIATA - AMVA,Analista,2021/12/06 16:30:00.000,Baja,6.269816714,-75.550477262,Media,Deslizamiento,Lluvia,Medellín,Comuna 3 Manrique,Campo Valdés No.2,,Carrera 41 # 77 - 61,0.0,0.0,,,DAGRD,,1,1639.143329326923,16.71532029371995,225.76081730769232,0.3273639678955078,13.0,7.0,1850.9341,2021-12-06 16:30:00,12,107.387
233,470,2024/08/06 22:05:31.000,Oscar Sanchez,SIATA - AMVA,Analista,2021/12/21 00:00:00.000,Media,6.289255412833296,-75.60036599340374,Media,Deslizamiento,Lluvia,Medellín,Comuna 7 Robledo,Monteclaro,,Calle 69 B # 95 C - 40,0.0,0.0,,,DAGRD,,1,1842.423076923077,12.490309495192308,192.25394381009616,0.28601859166071963,12.0,2.0,1999.781,2021-12-21 00:00:00,12,110.957825
234,471,2024/08/06 22:05:31.000,Oscar Sanchez,SIATA - AMVA,Analista,2021/12/21 10:55:00.000,Baja,6.21822170399997,-75.565000026,Media,Otro,Lluvia,Medellín,Comuna 9 Buenos Aires,Asomadera No.2,,Calle 18 # 35 - 50,0.0,0.0,,,DAGRD,,1,1613.186434659091,7.203448902476918,212.84130859375,0.15110355073755438,13.0,7.0,1968.7611,2021-12-21 10:55:00,12,104.52697
235,472,2024/08/06 22:05:31.000,Oscar Sanchez,SIATA - AMVA,Analista,2021/12/27 03:00:00.000,Baja,6.288160119,-75.599477593,Media,Deslizamiento,Lluvia,Medellín,Comuna 7 Robledo,Monteclaro,,Carrera 96 # 70 D - 30 Bloque 57,0.0,0.0,,,DAGRD,,1,1824.925030048077,19.538959209735577,211.63074669471155,0.5162483362051157,2.0,8.0,1999.781,2021-12-27 03:00:00,12,110.957825
236,473,2024/08/06 22:05:31.000,Oscar Sanchez,SIATA - AMVA,Analista,2021/11/30 22:00:00.000,Baja,6.2857564,-75.5866162,Media,Deslizamiento,Lluvia,Medellín,Comuna 7 Robledo,El Diamante,,Calle 78 # 85 A - 125,0.0,0.0,,,DAGRD,,1,1651.291766826923,8.208936251126802,127.49941781850961,0.5295525330763596,12.0,7.0,1999.781,2021-11-30 22:00:00,11,214.80737
237,474,2024/08/06 22:05:31.000,Oscar Sanchez,SIATA - AMVA,Analista,2021/12/23 17:00:00.000,Baja,6.29015920199998,-75.639826663,Media,Flujo,Lluvia,Medellín,Corregimiento 60 San Cristóbal,Travesías,,Carrera 143 # 70 B - 16,0.0,0.0,,,DAGRD,,1,2109.4889914772725,14.72022732821378,180.56629527698863,0.9293781627308239,12.0,2.0,1864.2473,2021-12-23 17:00:00,12,93.477066
238,475,2024/08/06 22:05:31.000,Oscar Sanchez,SIATA - AMVA,Analista,2021/03/23 23:00:00.000,Baja,6.29514309899997,-75.540261148,Media,Caída de rocas,Lluvia,Medellín,Comuna 1 Popular,La Avanzada,,Carrera 28 B # 106 BB - 56 Interior 138,0.0,0.0,,,DAGRD,,1,1888.5276692708333,39.41439310709635,324.9973551432292,0.2773982683817546,4.0,7.0,1850.9341,2021-03-23 23:00:00,3,148.31581
239,476,2024/08/06 22:05:31.000,Oscar Sanchez,SIATA - AMVA,Analista,2021/12/29 10:00:00.000,Baja,6.27135939599998,-75.539772709,Media,Deslizamiento,Lluvia,Medellín,Comuna 3 Manrique,La Cruz,,Carrera 25 # 79 C - 52 Interior 113,0.0,0.0,,,DAGRD,,1,1990.8636363636363,33.91281960227273,323.10888671875,0.31569899212230335,4.0,4.0,1850.9341,2021-12-29 10:00:00,12,107.387
240,477,2024/08/06 22:05:31.000,Oscar Sanchez,SIATA - AMVA,Analista,2021/12/11 00:00:00.000,Media,6.272132179689636,-75.60497166391004,Media,Deslizamiento,Lluvia,Medellín,Corregimiento 60 San Cristóbal,Área de Expansión San Cristóbal,,Calle 56 A # 92 - 120 Interior 9704,0.0,0.0,,,DAGRD,,1,1663.4161783854167,6.134916305541992,64.33495076497395,0.9794982274373373,2.0,7.0,1864.2473,2021-12-11 00:00:00,12,93.477066
241,478,2024/08/06 22:05:31.000,Oscar Sanchez,SIATA - AMVA,Analista,2021/12/29 12:00:00.000,Baja,6.234675832828632,-75.62806525922507,Media,Deslizamiento,Lluvia,Medellín,Corregimiento 70 Altavista,San Pablo,,Carrera 110 # 31 - 202 Interior 0130,0.0,0.0,,,DAGRD,,1,1692.6090198863637,7.555537830699574,87.63629150390625,0.060259694402868096,12.0,8.0,1916.7314,2021-12-29 12:00:00,12,104.65902
242,479,2024/08/06 22:05:31.000,Oscar Sanchez,SIATA - AMVA,Analista,2021/12/29 15:00:00.000,Baja,6.27857927299999,-75.562515063,Media,Deslizamiento,Lluvia,Medellín,Comuna 4 Aranjuez,Aranjuez,,Carrera 51 B # 85 - 24,0.0,0.0,,,DAGRD,,1,1482.3831676136363,17.339227849786933,293.6617542613636,0.2689819769425826,13.0,8.0,1999.781,2021-12-29 15:00:00,12,110.957825
243,480,2024/08/06 22:05:31.000,Oscar Sanchez,SIATA - AMVA,Analista,2022/01/30 20:00:00.000,Baja,6.272640883850928,-75.63340741640197,Media,Deslizamiento,Lluvia,Medellín,Corregimiento 60 San Cristóbal,La Loma,,Calle 55 A # 125 A - 317,0.0,0.0,,,DAGRD,,1,1859.7436079545455,39.09279285777699,10.962185946377842,0.546343369917436,8.0,8.0,1864.2473,2022-01-30 20:00:00,1,63.983105
244,481,2024/08/06 22:05:31.000,Oscar Sanchez,SIATA - AMVA,Analista,2022/01/06 22:00:00.000,Baja,6.35650954949265,-75.71264209364689,Media,Deslizamiento,Lluvia,Medellín,Corregimiento 50 San Sebastián de Palmitas,La Sucia,,,0.0,0.0,,,DAGRD,,1,1383.1396484375,30.891855875651043,199.63055419921875,0.6960611343383789,9.0,8.0,1653.7441,2022-01-06 22:00:00,1,57.37657
245,483,2024/08/06 22:05:31.000,Oscar Sanchez,SIATA - AMVA,Analista,2021/11/30 23:00:00.000,Baja,6.27917931899998,-75.557473714,Media,Deslizamiento,Lluvia,Medellín,Comuna 4 Aranjuez,La piñuela,,Carrera 49 B # 86 - 10,0.0,0.0,,,DAGRD,,1,1536.5366586538462,19.08414048414964,130.09125225360577,0.8141134702242337,13.0,7.0,1999.781,2021-11-30 23:00:00,11,214.80737
246,484,2024/08/06 22:05:31.000,Oscar Sanchez,SIATA - AMVA,Analista,2022/01/13 16:00:00.000,Baja,6.28418237599999,-75.588550152,Media,Deslizamiento,Lluvia,Medellín,Comuna 7 Robledo,El Diamante,,Carrera 86 # 77 E - 46,0.0,0.0,,,DAGRD,,1,1638.793247767857,20.506127493722097,175.14606584821428,0.11651347364698138,12.0,7.0,1999.781,2022-01-13 16:00:00,1,77.50231
247,485,2024/08/06 22:05:31.000,Oscar Sanchez,SIATA - AMVA,Analista,2021/12/01 00:00:00.000,Media,6.23773984600001,-75.562919052,Media,Deslizamiento,Lluvia,Medellín,Comuna 10 La Candelaria,Las Palmas,,Calle 39 # 38 - 89,0.0,0.0,,,DAGRD,,1,1564.8177083333333,18.533047993977863,94.31748453776042,0.41811974843343097,9.0,7.0,1968.7611,2021-12-01 00:00:00,12,104.52697
248,486,2024/08/06 22:05:31.000,Oscar Sanchez,SIATA - AMVA,Analista,2022/01/26 12:30:00.000,Baja,6.24898717500002,-75.626258891,Media,Deslizamiento,Lluvia,Medellín,Comuna 13 San Javier,Las Independencias,,Calle 36 C # 113 - 71,0.0,0.0,,,DAGRD,,1,1691.1407752403845,28.919339693509617,36.38103309044471,0.3080873489379883,8.0,7.0,1916.7314,2022-01-26 12:30:00,1,69.5031
249,489,2024/08/06 22:05:31.000,Oscar Sanchez,SIATA - AMVA,Analista,2022/02/10 19:00:00.000,Baja,6.285931291,-75.536423093,Media,Deslizamiento,Lluvia,Medellín,Comuna 1 Popular,Carpinelo,,Calle 96 # 22 A - 23 Interior 102,0.0,0.0,,,DAGRD,,1,2077.7134232954545,27.489865389737215,298.05180220170456,0.628876426003196,4.0,8.0,1850.9341,2022-02-10 19:00:00,2,86.90865
250,490,2024/08/06 22:05:31.000,Oscar Sanchez,SIATA - AMVA,Analista,2020/10/01 10:00:00.000,Baja,6.22663831800003,-75.564263766,Media,Otro,Lluvia,Medellín,Comuna 9 Buenos Aires,Asomadera No.1,,Calle 29 # 37 A - 38,0.0,0.0,,,DAGRD,,1,1571.8675426136363,8.267157121138139,257.95046164772725,0.13697975332086737,9.0,7.0,1968.7611,2020-10-01 10:00:00,10,266.4711
251,492,2024/08/06 22:05:31.000,Oscar Sanchez,SIATA - AMVA,Analista,2022/02/19 18:00:00.000,Baja,6.266047793138786,-75.5346140391258,Media,Deslizamiento,Lluvia,Medellín,Corregimiento 90 Santa Elena,Piedras Blancas - Matasano,,Carrera 23 B # 71 - 12 De referencia,0.0,0.0,,,DAGRD,,1,2024.4656575520833,35.1134033203125,322.57334391276044,0.07702498137950897,4.0,7.0,1850.9341,2022-02-19 18:00:00,2,86.90865
252,493,2024/08/06 22:05:31.000,Oscar Sanchez,SIATA - AMVA,Analista,2022/02/20 08:40:00.000,Baja,6.2999933,-75.5414989,Media,Deslizamiento,Lluvia,Medellín,Comuna 1 Popular,Santo Domingo Savio No.2,,Carrera 28 F # 111 - 148 Interior 104,0.0,0.0,,,DAGRD,,1,1772.45068359375,20.194578806559246,261.08616129557294,0.29170870780944824,11.0,7.0,1850.9341,2022-02-20 08:40:00,2,86.90865
253,494,2024/08/06 22:05:31.000,Oscar Sanchez,SIATA - AMVA,Analista,2022/02/21 08:30:00.000,Baja,6.23196871,-75.52059102,Media,Deslizamiento,Lluvia,Medellín,Corregimiento 90 Santa Elena,Media Luna,,Calle 52 # 16 Este - 41,0.0,0.0,,,DAGRD,,1,1958.3870738636363,27.41663429953835,239.3341619318182,0.9428391890092329,7.0,8.0,1969.9814,2022-02-21 08:30:00,2,87.701775
254,495,2024/08/06 22:05:31.000,Oscar Sanchez,SIATA - AMVA,Analista,2022/02/20 18:30:00.000,Baja,6.234672829220484,-75.53341481181177,Media,Deslizamiento,Lluvia,Medellín,Comuna 8 Villa Hermosa,Villa Lilliam,,Calle 55 # 7 - 54 Interior 337,0.0,0.0,,,DAGRD,,1,1687.6092247596155,35.065286489633415,157.11503718449518,0.1585055131178636,13.0,7.0,1969.9814,2022-02-20 18:30:00,2,87.701775
255,496,2024/08/06 22:05:31.000,Oscar Sanchez,SIATA - AMVA,Analista,2022/03/20 15:00:00.000,Baja,6.22432808799999,-75.626559313,Media,Deslizamiento,Lluvia,Medellín,Corregimiento 70 Altavista,Altavista Sector Central,,Calle 18 D # 104 A - 03,0.0,0.0,,,DAGRD,,1,1706.8641183035713,26.156954084123885,97.93162318638393,0.7505194800240653,8.0,7.0,1916.7314,2022-03-20 15:00:00,3,138.92967
256,497,2024/08/06 22:05:31.000,Oscar Sanchez,SIATA - AMVA,Analista,2022/02/22 20:00:00.000,Baja,6.23832088,-75.539424097,Media,Deslizamiento,Lluvia,Medellín,Comuna 8 Villa Hermosa,Villatina,,Carrera 16 # 56 A - 61,0.0,0.0,,,DAGRD,,1,1685.8563058035713,11.685813903808594,246.48374720982142,0.3230383736746652,13.0,7.0,1969.9814,2022-02-22 20:00:00,2,87.701775
257,498,2024/08/06 22:05:31.000,Oscar Sanchez,SIATA - AMVA,Analista,2022/02/22 06:30:00.000,Baja,6.265768648814518,-75.53469775629904,Media,Deslizamiento,Lluvia,Medellín,Corregimiento 90 Santa Elena,Piedras Blancas - Matasano,,Carrera 24 # 70 BB - 18,0.0,0.0,,,DAGRD,,1,2046.1654829545455,27.99204600941051,261.62300248579544,0.32390988956798206,4.0,7.0,1850.9341,2022-02-22 06:30:00,2,86.90865
258,499,2024/08/06 22:05:31.000,Oscar Sanchez,SIATA - AMVA,Analista,2019/10/01 00:00:00.000,Media,6.28842081499999,-75.549009353,Media,Deslizamiento,Lluvia,Medellín,Comuna 1 Popular,Moscú No.2,,Carrera 40 # 97 - 58,0.0,0.0,,,DAGRD,,1,1669.8282645089287,32.154758998325896,237.619873046875,0.10851366179330009,9.0,7.0,1850.9341,2019-10-01 00:00:00,10,219.28531
259,500,2024/08/06 22:05:31.000,Oscar Sanchez,SIATA - AMVA,Analista,2022/02/20 00:00:00.000,Media,6.28791762700001,-75.542783747,Media,Deslizamiento,Lluvia,Medellín,Comuna 1 Popular,El Compromiso,,Calle 98 E # 31 - 33 Interior 175,0.0,0.0,,,DAGRD,,1,1859.9553786057693,27.086705134465145,276.7893254206731,0.024514860831774198,13.0,7.0,1850.9341,2022-02-20 00:00:00,2,86.90865
260,501,2024/08/06 22:05:31.000,Oscar Sanchez,SIATA - AMVA,Analista,2022/03/01 10:00:00.000,Baja,6.289740096,-75.542485208,Media,Deslizamiento,Lluvia,Medellín,Comuna 1 Popular,Aldea Pablo VI,,Carrera 32 # 101 - 2 Interior 147,0.0,0.0,,,DAGRD,,1,1825.8079927884614,31.67358163686899,273.7976637620192,0.022402767951671895,4.0,7.0,1850.9341,2022-03-01 10:00:00,3,148.31581
261,502,2024/08/06 22:05:31.000,Oscar Sanchez,SIATA - AMVA,Analista,2022/01/23 16:00:00.000,Baja,6.22716895100001,-75.541185339,Media,Deslizamiento,Lluvia,Medellín,Comuna 9 Buenos Aires,Bomboná No.2,,Carrera 8 # 44 AA - 14,0.0,0.0,,,DAGRD,,1,1742.4950420673076,26.556964580829327,39.328441913311295,0.693412707402156,9.0,7.0,1969.9814,2022-01-23 16:00:00,1,79.97835
262,503,2024/08/06 22:05:31.000,Oscar Sanchez,SIATA - AMVA,Analista,2022/03/01 13:00:00.000,Baja,6.261843634,-75.539493588,Media,Complejo,Lluvia,Medellín,Comuna 3 Manrique,Versalles No.2,,Carrera 23 D # 71 - 31,0.0,0.0,,,DAGRD,,1,1985.839092548077,28.825725848858173,276.8860426682692,0.8527884850135217,4.0,8.0,1850.9341,2022-03-01 13:00:00,3,148.31581
263,504,2024/08/06 22:05:31.000,Oscar Sanchez,SIATA - AMVA,Analista,2022/02/28 16:00:00.000,Baja,6.30001875006315,-75.6286403886033,Media,Deslizamiento,Lluvia,Medellín,Corregimiento 60 San Cristóbal,La Ilusión,,"Carrera 121 # 69 - 526 (125), De referencia",0.0,0.0,,,DAGRD,,1,2360.5416666666665,7.7124684651692705,260.1698811848958,0.46140480041503906,12.0,3.0,1864.2473,2022-02-28 16:00:00,2,74.083176
